place,frequency,lat,lon
日本,12703,36.5748441,139.2394179
中国,6163,35.000074,104.999927
東京,6043,35.6812665,139.757653
江戸,3483,33.2048328,130.2381563
京都,1880,34.9861909,135.7600629
インド,1832,22.3511148,78.6677428
フランス,1643,46.603354,1.8883335
アメリカ,1513,39.7837304,-100.445882
チベット,1494,29.6472,91.1174
大阪,1463,34.7021912,135.4955866
岸本,1390,35.3874172,133.4096623
イギリス,1348,54.7023545,-3.2765753
ヨーロッパ,1069,35.163657354.5260,15.2551
ロシア,1056,64.6863136,97.7453061
ドイツ,1017,51.1638175,10.4478313
清,984,35.40709525,95.9521157324195
パリ,941,48.8588897,2.32004102172008
鎌倉,862,35.329564,139.54442
朝鮮,809,40.3736611,127.0870417
上野,762,35.7133757,139.7766557
富士,714,35.1514949,138.6509228
大分,688,33.2326262,131.6060258
明,678,25.0860388,110.4262501
浅草,670,35.7175966,139.7975626
三田,652,35.6471142,139.7476353
九州,625,32.4821145,131.100901314453
關,579,36.4827737,115.4446073
長崎,555,32.7525953,129.8686364
奈良,545,34.6807963,135.8189494
燕,528,29.985931,103.0087944
笠,502,47.1416307,9.5531527
ロンドン,496,51.5073359,-0.12765
越後,466,34.6845909,135.7543156
呂宋,463,15.5919971,120.739674572193
蘭,449,49.564665,3.620686
伊勢,446,35.837787,136.648485
北海道,444,43.4519831,142.8197834
忍,431,48.1113387,-1.6800198
柏,425,2.9999946,43.500177
日光,420,36.7472777,139.6222388
沖縄,414,34.874682,137.887403
横浜,405,35.4656854,139.6225042
本郷,402,35.1753761,137.0134764
蒲,398,43.69411465,12.7012468526764
山陽,398,33.456111,109.963333
希臘,379,38.9953683,21.9877132
ラサ,378,64.6863136,97.7453061
神田,375,35.6937148,139.7708898
神戸,365,34.6792884,135.1782824
清水,365,34.729233,106.1177158
信州,360,38.76502,112.385805
佛,354,25.3367281,56.1727042588826
樺太,353,50.15947595,143.026441186009
箱根,348,35.189737,139.037778
豫,348,34.0000001,113.9999999
太平,343,41.9942218,121.7289458
琉球,342,34.3822058,132.5117195
宋,340,2.0069038,112.5493271
王子,337,35.7523466,139.7382749
利根,336,35.2434212,140.0779846
河野,335,35.5629786,137.9161178
秩父,334,37.5404322,121.3950498
蝦夷,326,34.2382689,116.1392666
羅馬,318,41.8933203,12.4829321
甲州,316,32.0084389,112.0854513
ローマ,315,41.8933203,12.4829321
銀座,314,35.66951555,139.7643055988
水戸,313,36.370781,140.4762395
足利,309,36.3319671,139.4562493
名古屋,308,35.1687934,136.882394
吉野,307,34.3769776,135.853556
木曾,306,35.2381061,136.2914588
岡田,303,40.7141137,140.59672507403
薩摩,302,34.4494654,135.7820509
松山,290,33.8403352,132.751077
近江,285,30.6013439,104.1143806
土佐,273,34.1198812,139.5381545
迫,270,52.1458506,17.397672
紀州,269,33.4887737,126.4987083
加賀,269,25.5903939,112.3631549
高柳,265,35.8081725,139.9988464
品川,260,35.6280038,139.7380078
谷中,260,35.721218,139.7660417
木曽,260,35.2381061,136.2914588
本所,257,37.91508,139.141635
関東,252,31.6268604,116.8782856
日本橋,252,35.68406775,139.774502916838
伊豆,250,30.3819696,111.4436927
常陸,247,36.2455,115.521
飛騨,245,36.908442,137.433758
ネパール,245,28.1083929,84.0917139
熊谷,244,36.1393423,139.389936
萩,240,36.8121719,115.1751929
駿河,239,35.4651516,117.6236073
信濃,238,45.6377,126.347
佐渡,238,37.660754,138.951431
秦,237,36.6972131,112.6520519
松本,236,36.2308601,137.9646912
天神,236,33.5903225,130.3998391
長安,236,38.0356538,114.5317834
かゞ,234,14.5203896,75.7223521
小田原,233,35.2561819,139.1552509
蒙古,228,46.8250388,103.8499736
東北,225,38.003448,140.6684528
奥州,225,-24.7761086,134.755
高輪,224,32.102753,119.2688548
吉原,222,35.0945453,112.5810521
東海道,221,35.19803095,138.663579454397
英吉利,221,25.0160479,121.5326727
瀬戸,220,34.7344138,134.0418841
木下,219,35.8389123,140.1483223
千葉,218,35.6136057,140.112996
春日,214,35.7084896,139.7527409
島原,213,32.7903299,130.3708063
深川,213,43.7211231,142.0409293
英國,213,54.7023545,-3.2765753
八幡,213,33.8692808,130.7954844
松島,212,38.3799813,141.0659166
福山,209,35.1799528,129.0752365
福島,209,37.75454,140.4592144
ギリシア,206,34.8129919,135.528146
関,205,36.4827737,115.4446073
浅間,205,35.8511968,140.4409036
早稲田,204,35.70917975,139.719721288951
大島,203,28.31987425,129.396840814539
羅,203,-11.7688862,19.8969771801931
丹後,203,35.859198,139.891073
伊太利,201,34.6956707,135.5139055
呉,201,34.2446363,132.5574725
小石川,201,43.8252915,143.8927991
千里,201,34.7990234,136.5566424
仙台,200,38.2597492,140.8798618
祇園,199,35.0046897,135.778402961242
イタリア,199,42.6384261,12.674297
熊本,199,32.7903176,130.6889513
大津,198,35.0030494,135.8648951
巻,197,37.7568262,138.8896189
出雲,195,34.5277604,135.8899958
錦,194,37,112
徳市,192,34.6430782,132.9919347
隅田,190,39.9004064,117.7323127
和泉,190,40.6108201,140.494229626708
美濃,188,5.7275567,100.5094517
青山,187,40.6424752,109.8959597
上州,186,33.8842669,109.8524036
中,186,30.3020852,108.0352442
恐,183,9.148681,-4.610648
荒,182,29.4601866,117.6990395
浜松,182,34.7039437,137.7348528
南京,181,32.0615513,118.7915619
田川,178,36.5571635,139.8914474
一条,177,43.7226922,142.047419
越前,177,35.760577,139.6061707
甲府,175,35.6670907,138.568946
札幌,174,43.0686365,141.3509218
台湾,174,23.9739374,120.9820179
高野,173,40.5872281,140.358795887102
平田,173,36.1916821,137.962663974867
ソ,172,8.3676771,49.083416
ベルリン,169,52.5170365,13.3888599
静岡,168,34.9717115,138.3892221
堺,167,34.5819598,135.4688679
筑波,166,36.2099485,140.1011967
越中,166,28.7814341,100.4602188
諏訪,165,32.9234921,129.9603116
津軽,165,34.0641845,132.9936721
たま,164,42.0568108,-92.5433918
広田,164,37.5493904,139.933468
三河,161,39.9815552,117.0714873
尾張,161,35.4981134,133.6092887
河内,159,21.0294498,105.8544441
熊野,159,31.8298241,131.4371155
福岡,158,36.7081098,136.9317417
阿波,157,35.2367979,134.1125235
和蘭,157,52.2434979,5.6343227
石川,156,40.5558946,140.5311758
歐洲,155,51,10
西班牙,155,39.3260685,-4.8379791
牛込,155,35.439427,139.940755
麻布,154,35.6564018,139.7339705
栄,153,35.1699605,136.9086754
アフリカ,153,-28.8166236,24.991639
御嶽,152,35.8014926,139.1823453
大坂,152,34.7021912,135.4955866
長州,152,24.5164639,117.6424895
築地,152,35.6680848,139.7725918
富山,151,35.1799528,129.0752365
琵琶,151,29.1007232,105.0711469
中野,151,35.7058302,139.665633
黒部,151,36.8701841,137.4341449
麹町,149,35.6842967,139.73889712743
串,149,30.5000001,102.4999999
浜田,149,34.90315,132.089084
衛,149,39.8960768,114.7183017
御岳,147,35.8014926,139.1823453
丹波,146,35.4498407,135.3283002
下谷,145,34.8586327,133.9169153
肥後,144,34.6417428,135.5453581
倭,144,37.8811369,-95.7517113
熱海,144,35.1039424,139.0780356
弘前,144,40.5985978,140.4857687
岡村,143,34.499414,136.628304
丸山,143,35.6164701,138.3886534
沼南,143,35.9711107,139.6236848
備前,142,34.2603727,135.3117534
四国,142,33.560875,133.371885739462
相模,142,35.6074603,137.1757224
肥,142,45.7647019,8.2499183
飛鳥,141,34.4649307,135.7981738
愛宕,141,38.3973372,141.0651465
白山,141,42.185,127.291389
金沢,140,36.5780499,136.6480247
上海,140,31.2322758,121.4692071
天草,139,42.0552277,100.4505086
敷島,138,37.75454,140.4592144
佐伯,138,32.9724755,131.9018836
不弥,138,42.3501894,-71.1007099274242
伏見,137,26.5450001,117.842778
えど,137,6.6076575,5.9722713
佐治,137,35.3294736,134.1141995
高麗,136,35.8817112,139.3044363
ダージリン,136,27.0377554,88.263176
中津,135,33.5991951,131.1908891
勃,135,-17.0568696,-64.9912286
東山,135,47.6542802,130.0758472
博多,134,33.5900436,130.4203556
イラン,133,32.6475314,54.5643516
相川,133,34.7576432,135.5336121
スペイン,132,39.3260685,-4.8379791
波斯,132,51.4471101,7.27247994426301
岡,131,22.2793278,114.1628131
武蔵,131,35.764215,139.352119
渡,130,47.06699155,6.23562277282045
花崗,130,24.5352367,110.2632017
羽生,130,36.1704464,139.5339177
赤坂,129,35.6716786,139.7356224
伊賀,129,33.6207841,130.4735926
向島,128,33.4914988,129.777190682883
山内,128,34.7204755,133.8677275
日比谷,128,35.6762399,139.7601969
荒川,128,36.084732,139.437677
晉,127,37,112
宇治,126,34.8904111,135.8007079
赤城,125,40.9501011,115.93229384851
横田,125,25.534971,116.240334
北,124,47.8584335,-3.6056222
三重,124,25.0559777,121.4853768
陸奥,124,29.6928458,120.5710796
松岡,124,22.7752148,113.8246206
可愛,123,34.353221,132.332894
紐育,123,35.439427,139.940755
上総,123,34.6731874,135.51337845
西郷,122,32.9391,107.703362
埃及,121,26.2540493,29.2675469
鹿島,121,37.7025019,140.9702057
田原,120,27.8310574,113.0758021
摂津,120,34.7801513,135.5614065
京橋,119,34.6967313,135.5339898
獨逸,118,1.3176397,103.8926973
浪花,118,35.2227019,140.3794316
湯島,118,32.6028385,130.337885309926
下総,117,27.5404635,99.8268472
大川,117,31.1989633,107.5078704
奥羽,117,31.2103679,105.3437463
うど,117,37.6089291,125.975415626941
アルプス,117,35.619007,139.322314048468
須磨,117,34.642239,135.1125557
田村,116,35.356306,136.2818042
千島,115,32.802821,128.93432305
大名,115,36.2899958,115.241577850068
秋田,115,39.7168833,140.1296657
遠州,115,36.175198,106.242475
伊予,114,37.429733,138.619387
魏,114,36.3596001,114.9297848
境,113,39.906217,116.3912757
鬼王,113,34.56064085,117.737626866951
上田,112,36.3965369,138.2495261
出羽,112,33.322263,130.2750206
北京,112,39.906217,116.3912757
青森,112,40.8299247,140.7341384
奴国,112,50.6382816,3.072245
盛岡,111,39.7021331,141.1545397
四谷,111,24.14138,120.67104
筑前,111,37.158909,140.429089
室町,110,37.5633295,126.9747869
大連,110,38.9181714,121.6282945
長野,110,36.6442745,138.1883615
番町,109,34.3416808,134.043083601575
金田,109,33.6830926,130.7762209
エジプト,109,26.2540493,29.2675469
小樽,109,43.1975759,140.9933746
岡山,109,34.6667504,133.9182664
アジア,109,2.91583,31.026949
山城,108,35.8957258,114.1822808
ひは,108,50.803198,8.3798275
亞細亞,108,35.7451366,139.7683624
白樺,108,31.2922396,117.0991558
鹿児島,107,31.6021426,130.5640944
満洲,106,22.0213231,120.8388993
はら,106,39.7675529,64.4231326
舞臺,106,38.7349397,113.2576165
岡本,106,36.5982887,139.9444191
会津,105,35.4580532,139.5146835
野呂,105,26.122719,112.6788437
ヒマラヤ,105,35.7107912,139.6859027
有明,104,35.6345562,139.7932562
白馬,104,36.6957815,137.8636758
大村,104,23.9900522,120.5605718
佛蘭西,103,23.5756759,107.1911571
津,103,39.0856735,117.1951073
魯,103,49.8158683,6.1296751
嵯峨,102,34.720913,108.9037147
芝,102,34.2534388,131.5981114
広島,102,34.3980242,132.476095
備後,102,37.234479,120.1699528
後漢,101,36.2404226,120.265623
柳橋,101,35.4567555,139.462385492674
泰,101,14.8971921,100.83273
陳,101,26.5560846,95.0769830283841
三角,101,22.685,113.4275
川崎,100,35.5315726,139.6972186
首里,99,26.2191726,127.7255525
行田,99,36.1140168,139.4320115
浦賀,98,35.2515189,139.7150623
大森,98,35.5884735,139.7279334
妙義,98,35.6047863,139.566641
加茂,97,34.7527151,135.8698504
武尊,97,30.052656,106.2451791
三輪,97,34.5268994,135.8486442
伊集院,97,31.6300861,130.3964779
有馬,97,36.469138,138.982007
イスラエル,97,30.8124247,34.8594762
オランダ,97,52.2434979,5.6343227
備中,97,30.6598921,115.8782568
多摩,96,35.6765958,139.5170281
下田,96,40.5920089,141.4077142
武蔵野,96,35.7202101,139.3767428
播磨,96,35.0781729,136.674788
函館,96,41.7737872,140.7261884
志保,96,31.9273617,107.4989913
大宮,95,35.9063869,139.6243304
四条,94,35.0032249,135.7719619
八丈,94,24.6331894,106.1880238
鬼怒,94,36.153691,139.962444
下野,94,35.8007888,139.1162427
肥前,93,36.2353052,137.1886605
紀伊,93,34.2692946,135.246368
旅順,93,38.8430387,121.247672
淡路,93,34.7392524,135.5168901
西宮,93,10.7764772,106.701938
京極,93,34.9302877,135.757728424795
淡島,93,35.0328147,138.8883049
甲武信,93,36.7078176,117.4015785
隋,92,34.398696,115.035417
梓,92,47.4068,5.8146609
大菩薩,91,24.9846748,100.2274087
薩州,90,31.45895615,129.958874825074
室生,90,35.5895773,139.4975602
久米,90,26.2160901,127.6757543
牧,90,-20.2759451,57.5703566
西山,90,25.0411094,102.6649565
淀,90,34.9065468,135.7211367
巣鴨,89,35.7334119,139.7394273
亜細亜,89,35.7451366,139.7683624
三島,88,35.1262974,138.9115159
白河,88,32.7188587,109.9247843
豊後,88,36.5023265,113.3800181
柿の木,87,35.414337,136.247136
桑名,87,35.0671696,136.6837701
荻,87,44.7533712,5.3689136
柳原,86,33.953534,132.7735252
池田,86,42.9214578,143.4532084
晋,86,37,112
早稻田,86,35.70917975,139.719721288951
殷,85,43.9564347,81.3286964464003
中村,85,32.9843748,132.9440278
後立山,85,33.539472,113.379231
福井,85,36.0621497,136.2239821
東海,84,43.06005335,137.335301269924
小川町,83,36.0571535,139.2628499
立山,83,41.1452706,123.0206182
新宿,83,35.68907,139.7007543
筑紫,82,32.4821145,131.100901314453
アイルランド,82,52.865196,-7.9794599
小野,82,36.0468761,137.970643
妻木,82,36.0932046,140.1208734
清国,81,35.4841442,135.5041277
相州,81,32.0453155,131.247245799864
葛飾,81,32.1408809,120.4274177
韓,81,61.8793428,68.6418156
小山,81,36.3129364,139.8065054
和歌山,81,34.2322107,135.19158
久地,81,35.610598,139.5925023
能登,81,37.768113,139.029386
神辺,81,34.5371406,133.3787131
伊香保,80,36.4996088,138.9235424
関西,80,26.742295,113.615024
吾妻,80,34.2523574,132.5793116
大町,80,40.5962605,140.4824781
伊達,80,37.824098,140.4933532
山川,80,31.2113606,130.6297909
山谷,80,23.426,106.794
沼津,80,35.103198,138.8592482
オシャベリ,80,34.526174,135.488286
成田,79,35.7779163,140.3140452
蒲田,79,35.5600973,139.7214818
アラビア,79,22.3743008,49.4771176515971
むつ,78,41.2928444,141.1831247
鳥羽,78,34.4867812,136.8430635
小笠原,78,35.6094235,138.4706175
幸,78,38.4634006,111.1186276
山形,78,38.2484701,140.3278031
本多,78,35.7071175,139.4815393
天津,77,39.3032619,117.4163641
那覇,77,23.1391,107.685
葉山,77,35.0452326,135.801886
三宅,77,35.528513,134.863848
叡山,77,35.0706662,135.8783544
ケル,77,42.9233925,75.5107135
仙丈,77,34.9995292,135.7825667
毛利,77,34.172997,113.894341
平ヶ岳,77,37.0022277,139.1708614
房州,76,27.694709,115.092948
新潟,76,37.9122444,139.0613294
名高,76,34.152844,135.215186
田楽,76,31.8502606,117.195747530897
千住,76,33.2652841,130.3394805
山陰,76,39.5003692,112.7839387
東,76,15.0000001,114.9999999
耶馬,76,15.5986243,45.2598934
若狭,75,26.2222858,127.6770894
金時,75,34.7341973,136.5153283
田端,75,35.7373701,139.7617151
神奈川,75,35.4715259,139.6275201
長門,74,32.0338946,121.0689904
長谷,74,34.8032182,132.7881533
駒ヶ岳,74,35.7895503,137.8045631
天理,74,34.6001921,135.8305562
宮崎,74,31.9157536,131.4319504
佐々,74,33.2367716,129.6469256
沼田,74,36.6424053,139.0356609
富江,74,46.0327,127.456
甲田,74,34.4931091,135.5972824
岩手,73,39.9721005,141.2119414
小諸,73,36.32701,138.4217128
富士見,73,35.9120403,138.2384268
佐野,73,36.3166754,139.5789733
御坊,73,33.907868,135.1591382
アラブ,72,59.7702832,8.2234479
飯田町,72,34.3202048,134.0043584
甲斐,71,26.3456207,105.4642205
漢,71,61.8793428,68.6418156
比良,71,35.219687,135.9439579
山岡,71,34.475218,136.65449
そが,71,35.5813725,140.1311573
榛名,71,35.1309212,134.0198838
山県,71,34.6689381,111.373435
小坂,71,37.786045,139.02361
玉川,70,34.6900806,135.4757904
香港,70,22.2793278,114.1628131
安房,70,36.171878,140.520928
楚,70,52.21370905,0.099991804844719
奈良坂,70,34.705182,135.83448
カルカッタ,70,35.66592825,139.856910294891
飯山,70,36.8454839,138.358746
阿蘇,70,32.9374013,131.0800572
碓氷,70,45.9294,126.342
百里,69,30.6708813,115.958354
ロシヤ,69,21.9582944,76.1547506
明石,69,34.6491038,134.9927483
池の端,69,37.926094,139.305071
スコットランド,69,56.7861112,-4.1140518
溝口,69,34.9281492,134.7425876
土耳古,69,47.3900474,0.6889268
鞍馬,69,35.112896,135.772269
千曲,68,36.5092242,138.1414571
蜀,68,24.98956575,121.546905745311
圍,68,39.8960768,114.7183017
周防,68,19.6404513,109.4291879
浦和,68,35.8589883,139.6571882
賀茂,67,33.5505567,130.3378299
軽井沢,67,36.3428502,138.6341737
昌平,67,40.1887146,116.1882919
由良,67,35.490244,133.7544842
松前,67,33.7860998,132.7050257
千束,67,34.0898242,132.0663756
柳河,67,42.187778,125.895556
武州,66,23.5715402,111.0139268
歐羅巴,66,43.864464,125.3117046
城山,66,31.6040481,130.5486886
柴,66,36.1162622,139.3247509
轟,66,28.687547,115.8540042
修善寺,66,34.9792025,138.9504702
穂高,66,36.339565,137.8817573
花園,66,28.5755672,109.4769796
竹田,66,34.9564389,135.7561241
大磯,65,35.3111982,139.3135025
淺草,65,35.7175966,139.7975626
平生,65,34.446479,136.598464
神楽坂,65,35.7039298,139.7341347
可也,65,12.6025318,-3.1137237
国府津,65,35.2812891,139.214209
大久保,65,35.7007776,139.6973178
久能,65,36.159599,139.773109
山東,65,36.0000001,118.9999999
佐賀,65,33.2641849,130.2973788
久野,65,35.261465,139.097998
露西亞,64,37.3779309,121.5210253
佛國,64,29.699469,106.047206
不忍,64,34.5772536,135.5396936
豊,64,47.1416307,9.5531527
穴川,64,34.3589863,136.8159816
クルリ,64,35.2958456,140.07575
ペルシア,64,27.2380913,51.19723479886
市川,64,35.7288741,139.9081729
兵庫,64,34.6677915,135.1641816
敦賀,64,35.6449012,136.0765084
高天原,64,36.3779338,140.4164448
尾瀬,64,24.4405,105.799
新町,63,31.5892974,130.5592643
中津川,63,35.500617,137.502847
ニューヨーク,63,40.7127281,-74.0060152
北山,63,35.0512426,135.7652088
ちま,63,34.5446115,1.39079080736882
斉,63,35.9754168,139.4160114
吉川,63,35.8765782,139.8435049
雁坂,63,34.9607512,136.1332431
宮城,62,24.9574263,110.8726488
アラビヤ,62,52.3930662,4.9542949
平,62,37.46826,139.020781
御影,62,42.942228,142.93608
日高,62,33.3038158,130.9573821
天台,62,29.1471696,121.0024424
松原,62,45.1335025,124.8165152
元園町,62,34.585177,135.852852
福知山,62,35.2960352,135.1188702
横濱,61,35.4662066,139.6231953
横須賀,61,35.2840952,139.655981
武藏,61,29.8385873,87.3738507
北米,61,36.8198248,119.4794706
壱岐,61,29.7271877,118.2572654
塞,61,44.1534121,20.55144
埼玉,61,36.1192436,139.4976783
松平,61,36.032503,138.512671
播州,60,27.5396316,106.8214413
桜井,60,34.5132193,135.8466795
安南,60,27.6081533,100.0189973
大英,60,30.5973293,105.2335873
邪馬臺,60,29.803586,103.812715
吉備,59,34.5083867,135.8313346
大洋,59,25.9938758,117.5461854
福建,59,26.5450001,117.842778
志摩,59,35.5146585,136.8940196
霧原,59,41.0346268,108.0919461
三保,59,24.4381936,110.3930712
那須,59,34.5790976,132.183267
デンマーク,59,55.670249,10.3333283
中山,58,22.5196895,113.3870834
浜町,58,31.602241,130.5662856
洛陽,58,34.6196539,112.4477046
日野,58,35.6793418,139.3940441
山口,58,28.8121806,114.4611705
象山,58,22.5196895,113.3870834
三沢,58,40.6693545,141.3536492
チリ,57,-31.7613365,-71.3187697
津島,57,34.1529065,133.000635754464
グリンデルワルト,57,36.1241779,137.615467682817
青柳,56,35.942451,138.1975633
西,56,26.6031069,101.62832
白耳義,56,35.8623916,139.9706966
トルコ,56,38.9597594,34.9249653
狩野,56,35.3128908,139.1034262
韓国,56,36.638392,127.6961188
姫路,56,34.8269005,134.6902424
難波,56,34.6635665,135.5021095
渋谷,56,35.6580785,139.7017546
隼人,56,31.743887,130.7402683
吉岡,56,35.4209862,139.4147443
三峰,56,25.8832071,119.3117723
古市,56,32.1711564,115.6488813
高谷,56,29.395117,108.0658046
吾妻橋,55,35.71010705,139.79893105
紅毛,55,40.3094123,112.623907
米子,55,35.4236321,133.3370422
安行,55,35.8539538,139.7572865
多紀,55,29.9857187,96.0875778
金峰山,55,35.8716612,138.6255109
岐阜,54,35.4094858,136.7569769
室,54,24.82453325,125.146841393793
今戸,54,33.0183453,119.0136509
露國,54,42.1888491,129.1687717
小倉,54,33.8865238,130.8820724
坂の下,54,36.031823,138.550439
川越,54,35.9070821,139.483294
千歳,54,42.8282573,141.6518556
三崎,54,35.8922574,139.6598017
九谷,54,30.1125431,116.2333304
南米,54,35.0360971,136.7902335
前橋,54,36.3832125,139.0726408
草津,54,35.0179088,135.96046
木津,53,34.7358877,135.8249246
真珠,53,21.94086,111.18812
木葉,53,32.9162863,130.6264811
陸中,53,32.0412051,121.1858942
両国,53,35.6957996,139.7929596
石田,53,34.9410548,135.8045232
生田,53,35.6149984,139.5421351
泉州,53,24.8755492,118.6723605
近畿,52,25.156,99.253
須田町,52,35.135925,136.916908
すが,52,66.2551025,71.0521689
坂下,52,35.5746826,137.5310907
足立,52,35.038904,133.383559
浦添,52,25.4557366,119.0029034
千代田,52,34.4688807,135.5663793
羽後,52,25.9551507,119.5438027
三国,52,34.7375647,135.4829803
栃木,52,43.0538068,2.2176533
岡崎,52,34.9255832,137.1573073
安芸,52,33.504921,133.9052491
狗奴,52,35.0504329,135.7717775
相島,52,33.7610167,130.368200302034
比叡,51,35.0700437,135.8419164
湯本,51,37.0064993,140.8499756
茨城,51,29.9777203,121.4454192
鄭,51,39.5181523,140.5822757
足柄,51,35.2719382,139.154451
南宋,51,35.9200861,113.0531151
小金井,51,36.3743446,139.8419693
石狩,51,29.7228427,112.4189037
岩代,51,33.7804911,135.279296
中仙道,51,34.6444872,133.885197
周,51,31.768077,108.4775532
矢島,51,39.2303757,140.1387548
ムツ,50,41.2928444,141.1831247
青梅,50,35.7904504,139.2583321
蒲原,50,35.1140849,138.5831657
八重山,50,31.7344652,130.4483246
群馬,50,39.5675897,2.6548577
千本,50,34.9425194,134.4943209
本町,50,34.6820183,135.4987206
浪華,50,35.2227019,140.3794316
愛蘭,50,48.8695169,2.3345894
釧路,50,42.9906837,144.3820381
京阪,50,35.1876271,133.9109551
尾崎,50,34.3615973,135.2406692
大将軍,50,35.0238467,135.7315732
目黒,50,35.6327942,139.7160514
大井,50,34.7432049,133.8052556
セエヌ,50,-0.6263536,73.1791074705682
きぬ,49,0.95,33.283333
桂川,49,35.139631,135.636724
箕作,49,34.7254371,138.9380569
常磐,49,43.581129,142.130998
高崎,49,36.3208614,139.0122633
槍ヶ岳,49,36.34198,137.6476291
石見,49,34.5715396,135.7858115
スイス,49,46.7985624,8.2319736
因幡,49,31.4889195,114.8322225
落合,49,47.3241456,142.7979361
くて,48,40.4735959,19.7676025
般若,48,35.4076957,133.7206135
筑後,48,22.708208,120.335207
丸の内,48,35.6804388,139.765181032057
十勝,48,35.5895773,139.4975602
朝霧,47,34.6438756,135.018113
船橋,47,35.7016567,139.9852496
遠江,47,28.973928,112.560755
新富,47,24.931095,121.0675566
水島,47,35.5753928,133.1701723
門司,47,33.9043043,130.9328578
北極,47,53.4802483,122.3547463
江州,47,22.5571351,107.4596528
新羅,47,25.2173672,117.0661913
志賀,47,35.2018209,135.9245843
荒尾,47,32.9947486,130.4347314
イタリヤ,47,25.8594939,74.8190617
金井,47,37.3723075,126.943397
竹生,46,35.452737,134.2049132
鴨川,46,34.3068625,133.9051397
大谷,46,34.2987495,135.4942703
讃岐,46,34.7763752,135.5451642
善光寺,46,36.6614233,138.187657684033
野路,46,26.122719,112.6788437
三好,46,31.9379757,118.2812659
北欧,46,35.4280851,139.6461433
伊那,46,35.838166,137.869905
神保町,46,35.6959719,139.7583937
天竜,46,35.3354672,134.6077738
切明,46,40.5113032,140.7347774
亀山,45,34.8502999,136.4503325
神崎,45,35.4123035,139.3887456
天王寺,45,34.6473432,135.5152413
こま,45,34.6422939,50.8801184
橋本,45,35.5948686,139.3449124
ニヤ,45,-19.0536414,-169.861341
大井川,45,35.166902,138.178604
泊,45,52.1458506,17.397672
奉天,45,37.4823889,126.9419387
北陸,45,39.796246,122.7849693
八郎,45,34.341439,104.504788
オーストリア,45,47.59397,14.12456
只見,45,37.3502724,139.314871
不彌,45,42.3501894,-71.1007099274242
朝子,45,39.7836465,141.1488576
久保田,45,33.255675,130.2288558
壬生,44,36.4226613,139.8051121
百済,44,34.5441499,135.7655883
新島,44,34.381297,139.265447476914
米沢,44,37.9094604,140.1284431
五条,44,34.3558348,135.6988469
池上,44,35.5720205,139.703049
揚州,44,32.3968554,119.4077658
道頓堀,44,34.6690306,135.5015715
古志,44,28.231583,129.2784834
馬籠,43,25.3813855,103.5219985
ワシントン,43,38.8950368,-77.0365427
ボストン,43,42.3554334,-71.060511
お茶の水,43,35.6059113,140.1256605
北宋,43,38.1235968,140.8902661
汲,43,39.0000001,116
マドリッド,43,40.47340315,-3.82951049211407
河南,43,34.0000001,113.9999999
西川,43,33.0182898,111.4259483
ポ,43,52.1458506,17.397672
真砂町,43,31.5600827,130.5523925
琅,43,29.0185321,93.116291
広東,43,23.1357694,113.1982688
千駄木,42,35.7255677,139.7632458
六条,42,36.028026,136.239973
今川,42,31.5365939,101.8098326
柳田,42,39.2764123,140.5538799
大西,42,34.0661031,132.9291502
大隅,42,25.403041,114.3566689
天満,42,34.7049267,135.5123086
さか,42,46.6617186,22.469189
桜田,42,35.846393,140.4414533
但馬,42,34.5704011,135.7672727
愛知,42,35.1968074,136.864835232295
阿蘭陀,42,51.48494655,-2.54481669752918
伯耆,42,35.7529706,140.8201321
ユタ,42,39.4225192,-111.714358
ポルトガル,42,39.6621648,-8.1353519
赤石,42,30.078438,119.1908662
井田,42,22.5561853,114.0385546
大唐,41,23.08051245,113.316253419733
田町,41,35.6457358,139.7476833
櫻島,41,31.5805744,130.657984
迦葉,41,25.6521,108.364
西欧,41,25.082587,121.5643534
宇都宮,41,36.5592983,139.8981571
興津,41,35.052559,138.5219742
雨龍,41,26.8265328,100.2350414
ボルネオ,41,1.4297828,114.741041303837
矢部,41,35.5730985,139.3867585
ベキ,41,8.5181445,-12.5294716
小竹,41,33.6966012,130.7105537
玉造,41,34.6746064,135.5304752
美作,41,35.0083742,134.1489028
唐松,41,34.964647,133.512144
清川,40,32.5871424,105.2355773
加茂川,40,37.6235027,139.1036406
掛合,40,21.0158848,-101.25284
瑞西,40,23.505989,121.367097
葛木,40,33.225099,131.67247
バビロン,40,34.662782,135.507033
湯河原,40,35.1462344,139.1021928
陸前,40,24.271195,117.964731
アフラ,40,8.037222,7.876389
會津,40,35.4580532,139.5146835
徳,40,51.1638175,10.4478313
トゥーン,40,14.4836158,-16.1289826
湯村,40,23.31034475,113.559353517669
桑港,39,35.4948589,135.744172701092
絳,39,35.4824861,111.6234837
駿府,39,22.8546663,111.8078586
西片,39,24.6349883,116.9495863
馬関,39,23.0156398,104.3923205
小日向,39,36.7656395,138.9731854
久留米,39,33.320487,130.5013889
唐津,39,33.4462729,129.9677507
満州,39,22.0213231,120.8388993
イヨ,39,33.7578962,132.7039458
笹部,39,34.8937627,135.4160669
八王子,38,35.655389,139.3394669
松尾,38,35.6360158,140.4576611
日向,38,35.6283537,140.3627718
磐城,38,34.5113689,135.7108183
天童,38,38.3599623,140.3695642
浦,38,43.69411465,12.7012468526764
数寄屋,38,34.7223324,135.3593432
相馬,38,37.8028828,140.9254798
常盤,38,31.5891881,130.5294722
池袋,38,35.7310839,139.7089164
日置,38,35.608544,135.2202736
尾州,38,39.8352102,114.5699856
武甲,38,31.3908089,104.6958889
蕨,38,35.8281232,139.6903799
坂東,38,34.1490689,131.4353657
石城,38,26.3154117,116.3413908
中屋敷,38,34.6764244,133.8703024
磯部,37,36.2983921,138.8497966
結城,37,36.2981402,139.8724513
鹿野,37,22.9123929,121.1371405
山梨,37,35.672618,140.193469
藤野,37,35.6158851,139.1524443
広瀬,37,35.5979123,133.1068139
八丁堀,37,35.6750004,139.7770726
江刺,37,32.2135378,117.6506429
山の井,37,33.2074589,130.5044164
三日月,37,34.9846313,134.4358702
榊原,37,38.3216933,138.5046816
泉,37,-14.7067141,-75.1308498
尾張町,37,35.0129994,135.7659772
蓬莱,37,37.7949103,120.824268
大清,37,46.3240228,124.5598093
京城,37,41.5846284,129.6091083
香爐,37,34.9113668,134.735907
信太,37,35.9094557,117.7620286
小田,37,35.2846827,132.630259
府中,37,35.672219,139.4800091
原口,37,38.112357,140.309565
津山,37,35.0545175,134.003275
雷門,37,35.7111333,139.7963683
お玉が池,37,35.6939091,139.775918257121
片品,37,36.808628,139.237823
滝野,37,42.90189345,141.367313068038
パナマ,36,8.559559,-81.1308434
馬喰町,36,35.6933693,139.782427
和蘭陀,36,54.564094,-1.3129164
白根,36,37.765284,139.039993
小川,36,35.7374095,139.4635507
名取,36,38.1733422,140.8827769
横川,36,36.336178,138.7372548
旭川,36,43.7627501,142.3579263
中川,36,35.8769893,102.8387939
早川,36,35.2391784,139.1451992
松江,36,31.0344052,121.2232077
宮津,36,35.5342195,135.1997729
高知,36,33.5670964,133.5436798
松崎,36,35.4687232,133.9020574
椿,36,33.6098979,135.403898
ベルン,36,46.9482713,7.4514512
高岡,36,36.7411592,137.0147573
福富,36,33.2126066,130.3299951
すすきの,35,43.0553612,141.3533762
粟,35,33.0000001,119.9999999
前漢,35,43.1434795,141.1597171
蔵前,35,35.7055187,139.7924102
仙北,35,22.2753937,112.5263102
大垣,35,35.3670837,136.6178001
福州,35,26.0774954,119.2918215
伊良湖,35,34.6679209,135.581556
筋違,35,31.6176248,116.7740528
釜無,35,38.5140857,139.5311433
雲南,35,25,102
八瀬,35,35.0802491,135.818617
潮来,35,35.9370775,140.5495746
坂上,35,36.3276219,137.1409188
目白,35,35.7211861,139.7064823
田辺,35,34.628789,135.5250123
広岡,35,36.5795401,136.6447198
松川,35,37.6537618,140.4842295
アイガー,35,34.1119898,136.2271276
萩野,35,42.5212277,141.305886
片町,34,35.6923019,139.7247434
天城,34,30.8688,108.369
碧山,34,29.5730296,106.1686627
市ヶ谷,34,35.6915222,139.7376542
摩耶,34,34.7086165,135.2249935
梓川,34,36.6438283,117.961169
深草,34,34.9643394,135.7701014
木挽町,34,35.434956,136.771667
伊丹,34,34.7803352,135.4217398
江南,34,22.7848277,108.2691257
太子,34,22.32458615,114.168281508252
河東,34,35.218039,111.053715
富士川,34,35.1411158,138.6185601
霞,34,35.109872,111.354499
掛川,34,34.7693974,138.0146156
笛吹,34,34.4716712,135.7117173
漢那,34,48.9716708,-98.6917884
スウェーデン,34,59.6749712,14.5208584
此花,34,28.0115471,114.0275502
越,34,23.1357694,113.1982688
畿内,34,34.5901535,135.579948513126
千石,34,35.7277122,139.7449946
八戸,34,40.5093889,141.4311833
御器所,34,35.1495208,136.9338103
根,33,47.9885433,-1.1235595
港,33,22.2793278,114.1628131
羽前,33,28.704072,116.6898958
大方,33,27.1495528,105.6003223
徳島,33,34.0746782,134.5515212
小金,33,31.0020996,102.3620141
黄河,33,37.5857553,105.8553636
逗子,33,35.2976319,139.5788659
三津,33,33.8638379,132.7197282
板橋,33,25.0151874,121.464592
北平,33,39.906217,116.3912757
大湊,33,41.2804269,141.1615289
鶴見,32,35.5083388,139.6759759
九重,32,34.997681,139.9110908
ウル,32,32.8129681,66.0183185
あさま,32,26.4073841,93.2551303
南向,32,28.2027111,121.2083398
久高,32,34.165833,112.291944
國府,32,34.8376284,137.3280939
兒島,32,43.9334043,125.5961775
金華,32,29.1080344,119.6486487
シカゴ,32,41.8755616,-87.6244212
駒形,32,36.3541169,139.1397662
大沼,32,41.9721793,140.669364
彦根,32,35.2720561,136.2634916
板倉,32,35.492355,140.250398
北方,32,33.2161375,130.0830616
両神,32,36.33203,138.410738
岩倉,32,35.2782895,136.8734234
マレー,32,54.5562536,23.3503665
小黒,32,35.9008902,139.0105081
カガ,32,30.3833336,-179.2833333
栃本,32,34.3378458,135.8039706
遊佐,32,39.0157418,139.9050489
美麻,32,36.5528962,137.8885674
右京,31,33.8762185,136.0855869
鈴鹿,31,34.9550909,135.2737288
百濟,31,29.5347085,118.3922092
御殿場,31,35.2999658,138.9341778
岩村,31,35.3689033,137.434364
永田,31,36.135256,139.2591857
豊前,31,34.5405177,135.8300686
遼陽,31,41.273887,123.1693463
槙,31,40.3548513,44.07511
シンガポール,31,1.357107,103.8194992
上高地,31,36.2462449,137.6355354
桜島,31,31.5805744,130.657984
籬,31,47.1416307,9.5531527
寺内,31,35.886284,140.438087
対馬,31,34.3952765,129.315448965878
メキシコ,31,23.6585116,-102.0077097
小高,31,37.5628963,140.9961748
野州,31,35.7183056,139.8167501
八田,31,35.1489761,136.8523706
甲信,31,23.8886,108.723
真野,31,38.468592,141.389997
韃靼,31,26.0818771,99.4543826
十津川,31,33.584853,130.897211
飾磨,31,34.7997349,134.6753702
御宿,30,35.1880192,140.3519642
伊豫,30,37.429733,138.619387
江の島,30,35.30008825,139.480645175305
南町,30,32.0615513,118.7915619
新橋,30,35.6671895,139.7588592
本州,30,37.490012,139.835662141241
菊池,30,35.2664483,138.1974354
安達,30,37.6122242,140.4664518
ソロモン,30,-8.7053941,159.107069385185
人形町,30,35.6862799,139.7821879
宮川,30,34.387404,136.39756
中坂,30,34.3940963,135.73235
秋月,30,34.2307704,135.2045743
直江津,30,37.170264,138.2422616
加納,30,8.0300284,-1.0800271
大崎,30,35.619399,139.7285191
三州,30,28.4727051,115.825617290237
日吉,30,35.5534689,139.6468752
濠州,30,32.8754903,117.5260756
ボンベイ,30,35.3978344,139.5316849
ブラ,30,14.89727245,43.4665603348457
釜沢,30,40.351312,141.314397
巨勢,30,34.9797679,134.1303525
八木,29,35.0690587,135.5318686
初瀬,29,34.5317923,135.9058003
伊東,29,34.9755818,139.0922763
葵,29,48.25684,3.26409
隠岐,29,34.6633002,135.455085
田沼,29,36.3669606,139.5817468
西蔵,29,34.8835207,137.3949017
黒姫,29,36.9701908,140.0601121
深谷,29,36.1915583,139.2810987
御神,29,35.6912285,139.7694124
芳町,29,37.92618,139.053431
浙江,29,29.0000001,119.9999999
東漢,29,25.4364622,119.6022645
遼東,29,24.4596818,110.2241185
八ヶ岳,29,35.9417261,138.3450705
角田,29,37.9791833,140.7727039
梶原,29,29.5303563,104.6659458
藤沢,29,35.338575,139.4874958
磯谷,29,33.792439,133.707795
アテネ,29,37.9839412,23.7283052
国栖,29,34.3850268,135.9361417
タイ,29,14.8971921,100.83273
布哇,29,48.797562,1.4944658
北条,29,37.338917,138.637571
安土,29,42.7486439,128.4304261
平戸,29,30.6782402,121.0116196
リオ,29,-22.9110137,-43.2093727
古賀,29,33.7326714,130.4668375
勝山,29,35.3847269,136.5796873
下津,29,36.9478323,115.9957995
木舟,29,35.027672,133.9155488
十和田湖,29,40.45865515,140.871130531652
佐世保,29,33.1637152,129.7257096
シッキム,29,27.601029,88.4541363868015
羅布,29,42.1877212,140.4206273
私部,29,34.764948,135.704602
九条,28,34.6753272,135.473544
鋸山,28,35.7792411,139.1059477
絵島,28,38.367561,141.07363459322
庄内,28,34.7502593,135.4750408
宇和島,28,33.2258679,132.5672927
六波羅,28,34.9970611,135.77333
大蔵,28,37.830951,139.128782
鶏冠,28,45.3024982,130.9742213
身延,28,35.3614072,138.4531094
下,28,35.109872,111.354499
五番町,28,35.689685,139.733989
印旛,28,31.4889195,114.8322225
ギリシャ,28,38.9953683,21.9877132
鳥取,28,35.4941164,134.2260086
胡,28,47.1817585,19.5060937
マオ,28,39.8894819,4.2661641
西の宮,28,34.4668335,135.5792116
高尾,28,35.6423428,139.2826625
真岡,28,36.4386671,140.0025367
多田,28,34.8602558,135.416871
衣川,28,36.0497844,110.1712535
黒川,28,35.1971483,136.910597
箱館,28,32.2667724,118.5324543
北アルプス,28,36.2675446,137.5768083
湖州,28,30.8942995,120.0851114
柏木,28,26.7728908,103.0859283
ブータン,28,27.549511,90.5119273
笠ヶ岳,28,36.3154851,137.5503901
皇海,28,36.0000002,123.9999998
高松,27,34.350692,134.0461528
中華,27,24.5922652,110.5926761
海草,27,10.4910173,107.1710617
北上,27,39.2866832,141.1135121
花月,27,25.6252,105.027
雲州,27,39.8643089,113.6706118
黒羽,27,34.208231,134.4068554
森,27,41.1343702,-83.1194199
杭州,27,30.2489634,120.2052342
生駒,27,34.6932355,135.6979211
上杉,27,40.146154,140.350069
焼岳,27,36.22889,137.5882358
綾,27,26.4930141,113.768124
北越,27,35.674321,138.238808
淀川,27,34.858088,135.666779
浦塩,27,30.1611272,120.149031
東郷,27,31.3612317,107.7091787
北野,27,35.6446036,139.3540839
那珂,27,-18.3982355,20.72468
西比利亜,27,43.0988755,-0.0624326
裾野,27,35.1716965,138.9094546
北陸道,27,-1.3225415,175.995373439187
五竜,27,29.3284452,107.7552723
菅沼,27,36.82860575,139.364234343894
臼杵,27,33.1186021,131.807899
毛勝,27,26.0908206,99.1359043
十和田,27,35.917436,140.567021
村松,27,34.98424,138.476284
ロッペン,27,47.19281165,10.8180083876753
山尾,27,22.7891796,115.3704551
別府,26,33.2796163,131.5003073
須弥,26,39.7127512,141.181724191744
暹羅,26,23.0538279,109.3801132
南島,26,-43.586562,171.212329399649
墨田,26,28.9470808,114.0319441
江戸川,26,35.7377552,139.8958777
徳本,26,34.4608403,134.3443386
北見,26,43.8047319,143.8973743
ミラノ,26,45.4641943,9.1896346
河辺,26,33.9533546,-117.3961623
鶴,26,50.6080651,9.0284647
長者町,26,35.2958853,140.3850371
滋賀,26,44.112525,143.4689784
中禅寺,26,36.7312192,139.491697156085
我善坊,26,37.1748511,118.6993565
石上,26,34.8498531,133.973045
赤穂,26,35.7299439,137.9282174
檜枝岐,26,37.0237942,139.3862235
雲取,26,21.086357,105.9191465
浅井,26,40.7124558,140.59714938613
一條,25,34.6779291,138.8744702
土浦,25,36.0779952,140.2060155
ひたち,25,36.5991225,140.6504604
洲崎,25,27.0719256,142.1924484
早月,25,42.656011,140.932652
台場,25,35.6259018,139.7714216
濠洲,25,32.8754903,117.5260756
飯田,25,35.5196646,137.8211924
スパルタ,25,36.5055712,-81.1207497
三筋,25,33.8638379,132.7197282
湖南,25,27.6662087,111.7487063
雍,25,18.6692445,105.6881594
平塚,25,35.3274105,139.3492322
針,25,34.98635,136.079677
内幸町,25,35.6694556,139.7553799
塩原,25,27.4261378,101.5075349
塩山,25,38.0579995,117.2219968
東亞,25,36.518,118.129
緒方,25,32.970743,131.477206
菖蒲,25,30.7214174,116.2577677
南アルプス,25,35.4602243,138.1497093
大塔,25,23.646039,103.2919027
ニアリ,25,-2.7416334,12.3332136
つくば,25,36.0833265,140.077279
高句麗,25,24.987548,121.5768399
奧羽,25,31.2103679,105.3437463
百石,25,35.8676218,139.9756876
本庄,25,36.2360554,139.188536
秋葉,25,37.9395338,139.081696
ハルピン,25,35.6206352,139.6923682
至仏,25,67.6783253,57.0626853
湯檜曾,25,36.8027175,138.9865728
海宮,25,35.6738929,135.2908908
赤倉,24,36.552306,137.325249
梁,24,36.4289829,139.8862123
大平,24,41.0657912,140.5594227
筑摩,24,36.2243771,137.9845153
須原,24,35.697532,137.694346
待兼,24,25.5198069,114.9980163
二見,24,35.584587,134.7980625
横山,24,37.867222,109.4075
うま,24,32.6926543,-114.6275386
上中,24,35.463838,135.8550686
スラ,24,45.9383,3.2553
青島,24,36.0638034,120.3781372
金光,24,34.5409507,133.6207826
哈爾賓,24,45.8016143,126.5287796
渡辺,24,36.9371325,140.0534105
雑司ヶ谷,24,35.7186356,139.7144121
戸山,24,25.2836484,118.2542777
やまと,24,32.699616,131.049859
今宮,24,34.6541833,135.4929042
田代,24,33.3841138,130.5247036
つるが,24,35.6445135,136.0734634
強羅,24,35.2508461,139.0482584
平城,24,40.0919817,113.2951122
日暮里,24,35.7283798,139.7709817
那須野,24,39.52927495,140.231995499107
北ノ庄,24,35.0533646,135.5309577
神楽,24,43.7607934,142.349417
長江,24,30.5678223,114.2945373
三原,24,34.4005041,133.0832863
安来,24,35.4280455,133.2592583
渋,24,59.6749712,14.5208584
三本木,24,34.6808027,133.8219655
川村,24,35.498798,138.969529
明智,24,35.3061498,137.3874735
燧岳,24,41.4390715,141.0529493
長沢,24,38.7097377,140.3660094
馬来,24,23.4644,109.712
玉野,24,34.4947746,133.9539193
クク,24,59.07152985,24.8012828742266
宝川,24,34.8751786,137.417347
白沢,24,40.3384424,140.5919123
芳野,23,36.204135,137.965659
紅海,23,20.29654545,38.5342971439939
大空,23,34.7145819,135.5367013
ペン,23,53.1655415,44.7879181
地藏,23,35.151136,138.923879
葛西,23,35.6636282,139.8726921
スマトラ,23,35.5905819,139.696791504091
八代,23,32.504005,130.6217417
水道橋,23,35.7020419,139.7536358
佐久,23,44.7440678,142.0486078
鳥巣,23,39.99152275,116.390282419775
西河岸,23,31.148665,114.901035
西藏,23,29.8556443,90.8749807
猿楽町,23,35.69891595,139.759507203302
モンマルトル,23,34.689809,135.545636
豊島,23,34.479641,134.070341728552
桂,23,27,107
東亜,23,36.518,118.129
足尾,23,36.6420157,139.4481767
代々木,23,35.6839519,139.7020805
鳴門,23,34.1792038,134.6084122
御山,23,28.6839525,118.2402868
乗鞍,23,36.3988043,114.68701225
厳島,23,34.271448,132.308872180478
長岡,23,37.4478778,138.8541667
岩内,23,35.078236,133.719505
相生町,23,35.0311412,135.769036843431
ブダ,23,47.4938673,19.0417582
ベルギー,23,50.6402809,4.6667145
ブラジル,23,-10.3333333,-53.2
大釜,23,17.1053568,98.9953943
嵩山,23,34.4726536,112.9349216
木島,23,35.5664915,133.172361
堀江,23,33.9058337,132.7534287
浅川,23,33.6264682,134.3586396
行徳,23,35.6828816,139.9145062
湘,23,27.6662087,111.7487063
小豆島,23,34.4897774,134.260406554103
新道,23,34.381297,139.265447476914
ダブリン,23,53.3498006,-6.2602964
ミュンヘン,23,48.1371079,11.5753822
金峰,23,23.1837969,113.445650066881
亀沢,23,35.728385,138.524576
高畠,23,37.992415,140.1531311
高浜,23,36.1638097,140.2946609
下関,22,33.9493851,130.9217895
松野,22,35.086678,138.357348
赤羽,22,35.7781394,139.7207999
ナポリ,22,35.7057468,139.5769994
米原,22,35.3149074,136.2901179
松戸,22,35.7844366,139.9006078
御徒町,22,35.7069531,139.7746303
羽黒,22,35.3510979,136.9525094
舞鶴,22,23.4568956,121.3494948
妙高,22,31.56722,106.15399
亞拉比亞,22,14.887216,45.424355
ホンコン,22,35.7116296,139.5669013
喜多,22,35.5093721,135.1875527
中井,22,35.7150987,139.6863011
宮原,22,35.9403046,139.6095496
坂井,22,37.8673142,138.9593876
熱田,22,35.1298864,136.9104552
医王,22,37.3209981,126.9480341
大秦,22,35.6161656,106.6170329
ビルマ,22,-1.2905966,29.3550100736314
瑞典,22,59.6749712,14.5208584
栗山,22,43.058359,141.7757002
投馬,22,28.9826876,89.1069856
吉祥,22,22.7123257,114.2395362
鰍沢,22,35.53043,138.446783
呼子,22,26.360975,127.145578
銚子,22,35.7296133,140.8274887
平井,22,35.706421,139.8425004
藤原,22,35.7435089,139.0790389
鮫ヶ橋,22,37.053791,138.2334299
土師,22,35.2328134,134.2257895
渋川,22,36.4906867,139.0085523
戸倉,22,36.4926139,138.1531153
七条,21,34.9900914,135.7676281
いよ,21,33.7578962,132.7039458
永代,21,36.4097778,140.3883326
大仁,21,34.994613,138.9374862
夷隅,21,37.429733,138.619387
宮城野,21,35.263846,139.048586
塩尻,21,36.1143838,137.9477924
シベリア,21,65.2729258,95.4899031853004
駒込,21,35.7365848,139.7472412
大川端,21,39.172999,140.1606704
寄居,21,36.1177399,139.1939396
利尻,21,36.2584,112.935
蘇州,21,31.3016935,120.5810725
米山,21,45.4701565,132.1986356
仲町,21,35.920911,139.481886
越ヶ谷,21,35.9022087,139.791702
荏原,21,26.210403,115.1590309
廣島,21,34.3980242,132.476095
島根,21,35.7819102,139.797285920612
山海,21,34.7225497,136.9040036
日田,21,33.3172406,130.9386819
ポー,21,52.1458506,17.397672
薄野,21,36.37487,138.196131
岩瀬,21,36.3594365,140.1082322
越智,21,34.4635321,135.7676353
旭,21,33.5588048,133.5085872
アルプ,21,45.2968119,4.6604809
西浦,21,39.0895514,125.7352285
戸沢,21,39.8592735,140.5811425
男体,21,39.6719104,115.7829168
千早,21,33.6491697,130.4403785
飯倉,21,35.6856774,140.5224408
信越,21,38.915438,141.489317
森田,21,36.1096441,136.2226333
片平,21,38.25452535,140.872919065713
ハドソン,21,59.37286535,-87.6408545328059
鹽原,21,27.4261378,101.5075349
南岳,21,27.2660465,112.7061618
レブン,21,45.3830533,141.0229973
堀之内,21,35.7741271,139.754987972252
甘木,21,33.4183456,130.6549086
大間,20,33.4068342,133.2875919
柳川,20,24.1486616,120.6781807
中部,20,34.9686457,136.6257451
霧島,20,34.3366591,134.1099099
サンフランシスコ,20,37.7790262,-122.419906
山北,20,35.3607725,139.0801532
桜木町,20,35.4496272,139.630787
北町,20,44.203644,142.364989
恵比寿,20,35.6464378,139.7102101
音羽,20,16.5792873,111.704382635064
コルトン,20,35.7170134,139.9364056
弓町,20,36.329074,139.009724
薬研堀,20,36.771575,139.5309712
陝西,20,37,112
安東,20,36.57458325,128.674874651197
火打,20,35.698598,137.233029
藪原,20,35.9308519,137.784782
内房,20,35.2021502,138.5515895
護国寺,20,35.7209953,139.726832589557
小岩,20,35.7332364,139.881843
墨水,20,36.516973,136.6877923
かせ,20,38.7829364,35.6531622
亜,20,27.708317,85.3205817
木賀,20,35.248418,139.052072
嵐山,20,35.0100353,135.6819148
上山,20,32.8404245,130.0437992
塙,20,52.4760892,-71.8258668
藤枝,20,34.8492732,138.2522644
堀川,20,35.103714,136.896559
康,20,33.3312064,105.6050116
相生,20,34.8180005,134.4739249
上河内,20,34.2541039,131.6485691
愛鷹,20,35.1062618,136.9346465
梅津,20,37.3499776,127.1088905
千日前,20,34.6562114,133.927998
三の丸,20,33.5640311,133.5166834
蠣殻町,20,35.682509,139.7817062
南極,20,-90,0
大日向,20,36.332111,138.346946
田京,20,22.4078096,113.9665287
阿武隈,20,38.0995277,140.8696826
大須,20,35.1593589,136.901099
洞谷,20,35.8865,128.6355
唐崎,20,35.049778,135.8667974
大利根,20,35.7782208,139.7797659
上越,20,43.8883609,142.9938233
牟婁,20,33.5236334,135.6623983
赤塚,20,36.3819368,140.4152492
五箇,20,37.1884024,138.928725
奈良田,20,35.5770164,138.3022606
一ノ瀬,20,35.1875032,136.3243674
本斗,20,46.6877802,141.8601144
山科,19,34.9926309,135.8167212
八景,19,40.5237433,141.2892373
長春,19,47.7303574,125.6617719
大屋,19,31.5628405,114.1208053
吉井,19,33.266388,129.685831
平野,19,34.630783,135.5517177
鹿の角,19,36.972479,140.724702
養老,19,35.2868893,136.556809
六郷,19,38.2149871,140.9344272
関ヶ原,19,35.3638665,136.470574
羽州,19,30.4856296,130.810087514682
鶴岡,19,47.328863,130.2816917
河口,19,22.7405358,103.8243528
二丈,19,35.6524135,139.5460669
待乳,19,42.7678486,45.8573155
四ツ谷,19,35.4738996,139.3860801
見附,19,37.5401782,138.9049476
エルサレム,19,31.7788242,35.2257626
ナザレ,19,32.7066301,35.3048161
滑川,19,36.7691519,137.3488867
那古,19,35.0223347,139.8600938
渤海,19,39.0009778,119.967522341832
江東,19,25.2562318,112.2640927
靜岡,19,34.9717115,138.3892221
塩谷,19,43.2024827,140.9248406
辰巳,19,35.6454772,139.8107392
霊岸,19,22.3349277,112.84917
シヨン,19,36.11967975,137.642964024362
萩原,19,35.2769156,136.7575034
駿州,19,37.2217446,-3.5942908
吐月,19,37.066254,139.0979445
ノルウェー,19,61.1529386,8.7876653
鍛冶町,19,35.6919069,139.771965787533
葭町,19,34.301357,135.1463988
金杉,19,30.744817,121.3372571
普魯西,19,24.096056,117.625512
金港,19,31.9575921,120.4086934
井ノ頭,19,34.1789267,133.3247941
浜名,19,41.1838734,140.4578514
綾瀬,19,35.7621283,139.8248669
児玉,19,36.1926268,139.1359581
川俣,19,36.2088339,139.5264678
豊洲,19,33.1122665,131.688726582004
音無,19,38.4005609,141.0686327
笠置,19,34.7590881,135.9342931
恵那,19,35.4552746,137.4084816
ユトランド,19,55.93969045,9.3180561684869
亀戸,19,35.6976987,139.827138
箕輪,19,35.9589529,139.6829331
戦場ヶ原,19,36.7788869,139.4424408163
八溝,19,35.2495437,100.4399101
真間,19,34.5195865,135.7729442
気仙,19,31.627503,117.8842395
紫波,19,36.819626,117.980675
輕井澤,19,24.1534437,120.647068186294
沖の島,19,31.864791,129.984349147509
浦山,18,36.863588,137.519154
八坂,18,35.620247,136.945466
郡山,18,37.398488,140.3888101
コロ,18,-17.6666667,179.8333333
マニラ,18,14.5948914,120.9782618
山西,18,37,112
佐原,18,35.8945456,140.4940774
花川戸,18,35.7140937,139.8007599
中島,18,32.530868,130.433469667667
加州,18,32.0084389,112.0854513
外山,18,30.7280407,122.4601112
稲葉,18,33.119618,139.8049379
横網,18,22.773994,109.171195
小出,18,37.2337116,138.953482
常山,18,35.8956441,119.402181
大泊,18,46.632815,142.7810147
南欧,18,55.3997225,10.3852104
柏崎,18,37.3633912,138.5558473
東川,18,26.1050432,103.0615453
猿沢,18,38.282297,139.520938
蒲生,18,35.8673508,139.7915927
黒岳,18,35.5520497,138.7494224
四條,18,35.0032249,135.7719619
日南,18,24.3778315,120.6543999
鹿角,18,29.134358,108.285229
聖,18,39.0857647,141.7106981
益田,18,34.6782129,131.8392373
みと,18,36.3659174,140.4731743
ウィーン,18,48.2083537,16.3725042
シャム,18,25.07,109.756
南部,18,31.3495835,106.0325296
ヴェニス,18,38.2454272,140.8891053
鶏足,18,3.784093,18.70467
中の島,18,36.0774475,133.093907562852
金陵,18,22.9227932,108.0452746
伊都,18,30.3819696,111.4436927
若狹,18,26.2222858,127.6770894
杉戸,18,35.2160157,140.2643419
ナイル,18,35.0629202,136.912473184903
氷川,18,35.049321,138.208704
出雲崎,18,37.531531,138.716067
印南,18,33.8180411,135.2198737
吹上,18,36.1032019,139.4529758
小原,18,34.968565,133.962041
東武,18,37.7452352,127.0569971
寺田,18,36.6988403,137.318645
交野,18,33.928127,133.320225
ジャパン,18,36.5748441,139.2394179
シャモニー,18,34.9717497,135.7458727
アーレ,18,-16,-72.25
マルセイユ,18,43.2961743,5.3699525
ペキン,18,39.906217,116.3912757
愛媛,18,33.9491147,118.7211469
道後,18,36.2543165,133.276078083333
栗橋,18,36.1369114,139.6940191
平湯,18,25.801017,107.209266
上閉伊,18,35.0571433,136.9464761
海南,17,19.2000001,109.5999999
綾小路,17,35.0025268,135.7595344
金谷,17,34.8196538,138.1261832
気高,17,35.5128019,134.0557086
岩沼,17,38.1121315,140.8639243
二色,17,33.481505,135.7728946
島村,17,35.340473,136.811269
滝川,17,43.5552486,141.9005856
天水,17,34.5797531,105.7062921
厩橋,17,35.70438295,139.7951589
富田,17,22.5243632,114.049894
芝口,17,33.9907073,118.205965
むさし,17,35.764215,139.352119
エゾ,17,5.60302335,27.9948284339438
喬木,17,30.703674,118.077255
四川,17,30.5000001,102.4999999
太宰府,17,33.5184903,130.5311595
渡良瀬,17,40.8581683,112.82555
真鶴,17,35.1569433,139.1322796
尾道,17,34.4048206,133.1931084
渡島,17,37.24001875,131.8701687563
桃山,17,45.7706949,130.980608
伊万里,17,33.271839,129.8772734
諾威,17,61.1529386,8.7876653
円山,17,43.0472847,141.3165501
柳島,17,33.58757525,130.375936081781
摂州,17,29.8547897,118.5939775
大野,17,37.4092247,140.9841652
竜田,17,37.28245,141.0026483
天山,17,42.030944,80.2006081
海野,17,34.1862168,136.3158115
中山道,17,35.796396,139.685417
月山,17,38.5486934,140.0268363
佃,17,34.0324404,133.8572408
西周,17,35.0615671,116.9019237
漢口,17,30.6216514,114.2494144
茂木,17,36.53131,140.181549
長田,17,34.6787583,135.59106
岡部,17,36.2056805,139.2375953
二子,17,35.2833884,136.764094190733
屋島,17,34.3366591,134.1099099
御倉,17,35.0059218,117.0715304
五島,17,34.3366591,134.1099099
佃島,17,35.5698136,133.32289947149
芳賀,17,34.7144535,133.8719707
息栖,17,35.8869599,140.628997
大洗,17,36.315351,140.5626675
早池峰,17,37.9316088,139.0547034
丹波山,17,35.7915332,138.9179496
カトマンズ,17,27.708317,85.3205817
魚沼,17,35.955985,139.8199296
吉次,17,35.5107024,139.1341611
甲賀,16,25.5903939,112.3631549
久世,16,34.9645355,135.7104072
人見,16,35.3360281,139.8762752
池の上,16,35.6605069,139.6729246
柳町,16,31.6030686,130.5636527
江口,16,27.803358,108.768955
野中,16,33.2116616,129.7085698
戸隠,16,36.7423126,138.0833548
四日市,16,34.9630151,136.6302658
国頭,16,27.4307638,128.685075
小浜,16,35.4916804,135.7454354
間切,16,37.7569449,84.1402799
玄海,16,13.6417133,109.2232388
山中,16,27.9760785,115.2792897
独乙,16,1.3176397,103.8926973
楠,16,34.220389,70.3800314
野尻,16,35.6733831,137.6364304
ラー,16,44.3640607,12.0590094908639
豊田,16,35.6595146,139.3814849
渥美,16,22.350835,114.2513338
平川,16,36.717366,104.96699
梁山,16,27.8849814,102.2657395
室蘭,16,42.3178489,140.9757765
江蘇,16,33.0000001,119.9999999
西漢,16,27.5548891,115.370835
下館,16,36.3041016,139.9780655
松井田,16,36.3094214,138.797336
亀岡,16,23.3594346,110.0412939
津和野,16,34.4732692,131.7740298
岩国,16,34.1716695,132.2255391
浦上,16,32.7654021,129.8633223
磐梯,16,-22.7558179,31.1926760491688
壇の浦,16,38.7222819,141.1535051
平林,16,38.1499749,139.4590888
橘,16,47.3566699,7.1598893
山鹿,16,33.014351,130.693863
星川,16,35.4588276,139.5946998
紫野,16,39.560043,141.231351
御茶の水,16,35.7005755,139.764082
沓掛,16,34.3942694,136.8142459
アッシリア,16,35.0663384,135.7925884
流山,16,35.8558741,139.9016914
都加留,16,35.6529608,139.5467067
篠山,16,33.0558032,132.6590785
安藝,16,28.8477345,115.5444471
江都,16,32.4374578,119.5647288
平沢,16,36.1809087,140.1052522
木屋町,16,33.8535232,132.7605954
駒場,16,34.658506,137.811084
門田,16,37.4424716,139.9137133
新田,16,25.9173875,112.1916318
烏森,16,35.152985,136.8638831
帷子,16,39.98279,141.130044
吉野川,16,34.260211,136.065417
黒谷,16,35.9207174,139.7270608
土岐,16,39.7585058,140.0737444
マージー,16,48.0147562,20.8236937
浮田,16,22.5243632,114.049894
緑町,16,40.6022294,140.476816251143
二本榎,16,35.481029,139.625798
大越,16,35.613318,138.9424992
東栄,16,35.0291346,137.713585
逢坂,15,34.5518665,135.6859957
菊坂,15,35.7092579,139.7574267
黒石,15,40.6482601,140.5917659
ペルシャ,15,34.6915266,135.1888578
富貴,15,34.8286392,136.9170316
森川,15,40.587255,140.493733
小笠,15,38.9325237,141.3844877
阿古屋,15,35.5458737,139.6918837
バリ,15,41.1257843,16.8620293
歌津,15,38.7181128,141.5195943
延岡,15,32.5898056,131.6722583
天龍,15,34.706367,137.842565
湘南,15,35.0642371,105.2442
竪川,15,35.8270001,139.713358
震旦,15,37.354421,-81.8002651
榛原,15,23.9298788,100.9375874
鳥越,15,35.48253,139.633133
ベニス,15,34.7582647,135.4954369
中央,15,37.2658831,111.2136366
那智,15,33.6440079,135.9365521
蔵王,15,38.2059569,140.3036231
シリア,15,34.6401861,39.0494106
出石,15,35.0029427,134.5538905
大河内,15,34.0310485,131.9342773
徳山,15,34.0510183,131.8020941
犀川,15,33.0182898,111.4259483
芝浦,15,27.6743501,100.8709042
華嚴,15,30.0066153,105.0069957
室堂,15,36.5772701,137.5958612
咸陽,15,34.3312012,108.7043813
イングランド,15,52.5310214,-1.2649062
白羽,15,31.0900374,99.3100696
膽振,15,37.354421,-81.8002651
城ヶ島,15,35.133322,139.618253401351
片岡,15,36.7542157,139.9459854
北岳,15,35.674321,138.238808
笹子,15,35.6039397,138.8253537
江川,15,24.320726,102.7544429
伊香,15,22.7443604,101.0494249
彦山,15,38.0579995,117.2219968
左京,15,35.3663973,137.8394796
小島,15,34.12559315,132.979311834368
青海,15,35.40709525,95.9521157324195
八千代,15,37.9152263,139.0532748
贄川,15,36.0140897,137.8607633
貝塚,15,34.4455195,135.3575766
伊佐,15,26.289317,127.758753
大内,15,33.2866721,132.6425657
匡,15,3.2582621,101.554678576289
大田,15,36.3497007,127.3849016
長沙,15,28.1450774,113.2384362
今西,15,27.9211117,116.7492151
東条,15,34.796978,136.155053
浅野,15,35.6136057,140.112996
柴又,15,35.7564295,139.8751807
今尾,15,31.6176248,116.7740528
甚之助,15,36.2153024,139.1001588
阿耨達,15,35.66136555,-105.973600178262
附物,15,38.5140857,139.5311433
千草,15,35.7175966,139.7975626
鐘ヶ淵,15,35.7337353,139.8205233
赤谷,15,27.551791,114.657158
オホーツク,15,59.3643921,143.2410816
松田,14,35.3462321,139.1385751
宇多,14,34.490762,135.410159
町裏,14,38.912556,141.56903
中の町,14,38.7971089,140.9950888
常州,14,32.1585385,120.173934
当麻,14,43.8257933,142.5170687
蘆の湖,14,35.214483,139.001996581867
先島,14,34.3085811,136.8191726
ネープルス,14,33.9436482,138.817385725
アデン,14,12.833333,44.916667
なると,14,34.1725784,134.608408
新地,14,37.8794447,140.9255626
本牧,14,35.762422,139.7856021
モロッコ,14,31.1728205,-7.3362482
富士見町,14,35.9083257,138.2026202
瓦町,14,34.3389281,134.0525179
えぞ,14,5.60302335,27.9948284339438
泰安,14,36.2002968,117.0809316
豊橋,14,34.7627709,137.381575
酒田,14,38.9219999,139.8460919
錦町,14,32.186368,130.8473265
伊勢崎,14,36.3268395,139.1942704
スエズ,14,29.4165427,32.1490967
坂町,14,34.314088,132.514867
エズ,14,43.7288923,7.3620705
揚子,14,23.0342849,120.2965833
京浜,14,23.3145,109.491
小田原町,14,34.997146,135.757447
若葉,14,35.9491238,139.408806
諏訪町,14,34.8237233,137.3699221
天神橋,14,34.69138845,135.511761100009
向町,14,32.7860435,129.7963435
海部,14,33.593967,134.3521884
千種,14,35.170798,136.9309031
片貝,14,36.3939498,139.0955133
矢田,14,34.6059613,135.5329275
パンテオン,14,41.89861595,12.4768334144839
その原,14,35.1467638,136.9033589
都城,14,31.7365393,131.0744458
プロイセン,14,38.3067375,140.89073063524
種子島,14,30.591848,130.995894840444
猪苗代,14,37.5463239,140.1032381
門前,14,34.6984595,133.8075649
三石,14,34.8043755,134.2757446
豆州,14,50.3978815,3.7806897
灘,14,49.2578445,-0.4547545
篠原,14,35.0991244,136.0713313
トロイ,14,3.0437752,34.1358452
新宮,14,33.7139551,130.4320308
カイラス,14,34.7207848,135.2684124
ユール,14,-33.7863447,150.866205297456
鞆,14,37.870009,112.5452739
ベーリング,14,60.0000001,-175
膳所,14,34.9993301,135.8806158
陣馬,14,37.7807298,-122.4748862
石山,14,34.9799397,135.9000031
新堀,14,34.794008,137.815263
北清,14,26.2372428,100.2956836
三十間堀,14,34.71737045,135.291190641099
一本松,14,35.0055711,138.3761047
芸州,14,39.8643089,113.6706118
岩村田,14,36.2746144,138.4723522
上松,14,35.7840442,137.6932571
鳥居,14,34.9205477,137.5518303
水府,14,28.5357114,104.1979754
下の関,14,32.7892377,130.36725315
彭城,14,34.2050708,117.2782967
奎,14,48.25684,3.26409
崑崙,14,31.4409337,119.4839487
アムステルダム,14,52.3730796,4.8924534
薩藩,14,13.624099,43.990397
沼山,14,39.2750918,140.1904765
丹生,14,34.2545885,134.3016114
舎人,14,35.8056634,139.7701164
二宮,14,35.2987535,139.2575905
鶴山,14,22.663757,112.8065463
西原,14,33.9483192,134.644836
仲の町,14,35.7288796,140.8335069
稲垣,14,32.950885,131.869874
金州,14,39.2398309,121.899384
伏木,14,36.7919439,137.0582194
月氏,14,30.7041776,119.3261356
柚木,14,35.1575063,138.6392601
荻窪,14,35.7042661,139.6200273
八條,14,35.8504308,139.8361087
二見ヶ浦,14,33.63542785,130.196441397386
霧ヶ峰,14,35.2908602,133.8859403
寺町,13,35.6562912,139.3328879
清澄,13,36.037175,107.668179
新城,13,40.9668904,111.8369968
西大寺,13,34.69300545,135.779878640746
茅ヶ崎,13,35.3306242,139.4074613
せと,13,35.240984,137.116187
能代,13,40.2069648,140.033035
郡上,13,35.4515045,136.263744
知多,13,34.642159,92.8220032
司馬,13,22.851616,120.609716
喜望,13,36.8237537,119.4839016
亜剌比亜,13,14.887216,45.424355
那賀,13,36.574354,140.322254
膳夫,13,35.3043577,138.285267
檜物町,13,36.3228728,139.006606
オックスフォード,13,51.7520131,-1.2578499
函根,13,25.2450886,55.3391326
宗谷,13,35.61904955,139.773612226547
ハンガリー,13,47.1817585,19.5060937
伝法,13,34.6890763,135.4517764
勝浦,13,0.9713095,7.02255
荊,13,39.906217,116.3912757
酉陽,13,28.86630155,108.764800548357
新疆,13,42.4804953,85.4633464
多々羅,13,48.2111848,3.0723709
洋,13,33.338889,107.581111
のと,13,36.8908864,15.0706454
海山,13,22.5620298,114.2309901
立川,13,35.69797,139.4135537
岩崎,13,42.0582153,86.5723962
北足立,13,26.8331869,100.3371565
江尻,13,36.7617174,137.029946
硫黄,13,23.9159398,116.4601492
古河,13,36.1945874,139.7095071
木津川,13,34.648299,135.478789
保津,13,34.556795,135.7837307
わらび,13,35.8256398,139.6797632
三橋,13,35.4540323,136.676925
大頭,13,21.9157606,112.4616659
野沢,13,37.5910368,139.6442042
上野原,13,35.6188935,139.1160455
西安,13,34.2607713,108.9423443
蘇門,13,48.823768,2.3620465
ドレスデン,13,51.0493286,13.7381437
山陰道,13,35.5195012,133.9897632
石州,13,22.8726,108.84
帶廣,13,42.9181018,143.2020215
房総,13,35.1439313,136.8643178
長良,13,34.6903452,133.7918454
相沢,13,40.70479815,140.657068462399
栗原,13,35.7829833,139.787648170056
狗邪韓,13,32.9410753,106.2063566
末盧,13,25.0583328,121.5467568
開進,13,45.2448298,141.8792008
鳴海,13,35.0784671,136.9508269
霞ヶ浦,13,36.0516769,140.33072730727
阪神,13,40.6764148,113.8241687
儀,13,39.3467083,115.2509065
領家,13,35.41867,139.5222936
横尾,13,34.7272285,133.8284483
西条,13,34.4312032,132.7428911
黒瀬,13,35.0497631,137.7410993
長泉,13,36.8307778,117.2584695
呉服町,13,31.5904147,130.5569262
ランス,13,49.2577886,4.031926
中条,13,38.0500723,139.3980637
拉薩,13,29.6553895,91.1704736
古井,13,35.4577297,137.0480891
悪沢,13,35.513406,138.214541
塩子,13,28.696308,106.399614
勢多,13,43.3102763,143.246641
船津,13,34.1421787,136.2286006
阿寺,13,34.942253,137.770511
須賀,13,35.3396397,136.7264454
西比利亞,13,43.0988755,-0.0624326
幽ノ沢,13,36.963703,139.063614
穴師,13,34.5456787,135.8542514
淡海,12,25.1835068,121.4197492
モシ,12,-3.3486456,37.3435249
男山,12,47.2959168,130.2822193
塔の沢,12,35.2345141,139.0940591
ずし,12,35.3040672,139.5838447
吉祥寺,12,35.7031413,139.5803077
甲武,12,27.697772,116.450485
三池,12,34.0834703,139.5582295
藤岡,12,36.2560128,139.6458638
太田,12,36.294102,139.3787733
福地,12,34.8443213,137.0485633
瓜哇,12,14.58331705,-90.527160408087
営口,12,40.6747155,122.2357736
入谷,12,35.720709,139.7845821
本石,12,36.1462941,139.3802458
ペナン,12,5.4065013,100.2559077
アルメニア,12,40.7696272,44.6736646
市原,12,35.0882783,135.7631314
遼,12,45.7578137,4.8320114
押上,12,36.6138725,137.1901521
中房,12,27.4428621,109.9411931
黒沢,12,39.2763263,140.699651
宇陀,12,39.0557025,115.1389272
豐島,12,48.4012078,134.482011079717
月島,12,35.664645,139.7845639
清見,12,37.0917645,110.1141393
三崎町,12,35.70076755,139.754044414489
天鹽,12,25.6528526,106.85656698409
湯沢,12,36.8711089,139.446612
今市,12,34.7341973,136.5153283
杵築,12,33.4111118,131.5755063
丸亀,12,34.2920372,133.792953
荊楚,12,35.2473649,138.4908923
うじ,12,34.8933744,135.8059219
好心,12,36.090631,136.233437
広原,12,32.4329637,105.8563402
セイロン,12,7.5554942,80.7137847
黒坂,12,35.207049,133.3836198
ナント,12,47.2186371,-1.5541362
波蘭,12,52.215933,19.134422
入間,12,34.6309113,138.8098784
浅草橋,12,35.6973915,139.7863101
屋久,12,24.90217,121.3505026
和田,12,37.1144827,79.9200157
多賀,12,34.4630241,134.8458874
中海,12,35.4746272,133.194392875649
ジャワ,12,-7.3279694,109.613910988013
越路,12,28.238606,112.9259348
安河,12,31.5591695,117.0717478
三木,12,34.7997742,134.9817843
金春,12,35.390446,139.991408
洞庭,12,26.6736,108.896
堺町,12,34.995462,135.762781
山井,12,40.7162445,140.537054538086
スルガ,12,35.1484735,138.558560601271
カナダ,12,61.0666922,-107.991707
バーミンガム,12,52.4796992,-1.9026911
和賀,12,34.7780518,136.9121052
大滝,12,38.971129,140.319693
茅場町,12,35.6792567,139.779738
湊川,12,34.6792856,135.166104
砂川,12,43.4928947,141.9093041
いせ,12,34.611618,136.530062053805
図幅,12,23.231414,120.5313676
滑,12,35.5765029,114.5184726
芹,12,36.6972131,112.6520519
浦安,12,25.7602213,104.9855973
敦煌,12,40.1411004,94.6607593
長井,12,38.1065942,140.0336548
二荒,12,35.7467588,139.8572339
チロル,12,35.7322881,139.8341472
カスピ,12,41.7789772,50.5607579057943
有楽町,12,35.6748872,139.7631061
越州,12,25.3024,103.869
金屋,12,45.44088,12.3338522641361
マッターホルン,12,45.9764421,7.6585734
オズ,12,51.9191343,30.8243039
奧入瀬,12,40.6369169,141.2019437
山根,12,26.986527,118.159976
ガンジス,12,25.7240512,84.1137187
カシミール,12,34.6894864,135.5100084
デリー,12,28.6517178,77.2219388
黄浦,12,22.716714,113.336599
メルボルン,12,-37.8142176,144.9631608
玉島,12,33.522412,133.557833662946
穴太,12,35.0556191,135.8647529
赤泊,12,37.8806459,138.3918571
藤島,12,38.7689066,139.8945165
稗貫,12,27.8165067,113.2359409
ルソン,12,37.9457923,71.5591114
都筑,12,34.7957713,137.5745043
下高井,12,35.931324,140.03522
角間,12,36.9897127,138.7393809
リド,12,10.45631305,7.52496870484693
ダムダム,12,-6.9091579,39.2878517
新川,11,43.0983928,141.3236645
ふらんす,11,46.603354,1.8883335
岐蘇,11,37.051612,140.215495
ヘンリー,11,45.458237,6.9149285
知念,11,26.145407,127.809305
高雄,11,22.6395321,120.3025585
荷蘭,11,52.2434979,5.6343227
国分寺,11,35.7000276,139.4804328
塩町,11,31.253476,105.4705025
紀伊国,11,33.76549075,135.750234926488
田子の浦,11,33.1448404,129.785503
深沢,11,38.20102945,115.219355888366
北浦,11,38.559972,141.0226175
胆沢,11,54.3706858,18.6129821033008
飯田橋,11,35.7007418,139.7440022
山原,11,35.05103,138.458457
豊川,11,34.905082,137.517788
澁川,11,36.4906867,139.0085523
仲之町,11,35.035487,135.748879
横手,11,39.310336,140.5604929
鴛泊,11,45.2285927,141.2293903
シャンハイ,11,21.986111,120.713333
エトナ,11,58.7523778,25.3319078
甘肅,11,38.0000001,101.9999999
東郡,11,24.247879,112.027798
冀州,11,37.5265857,115.514629476736
成都,11,30.6598628,104.0633717
沛,11,46.3355508,-63.1466676
武庫,11,35.2671315,133.4768075
占城,11,35.3754086,113.683978
野崎,11,36.8437535,139.9579832
青根,11,35.5358643,139.1275733
羽田,11,39.9004064,117.7323127
釜石,11,39.2734923,141.8724537
氏家,11,36.681443,139.962198
小町,11,30.5329956,111.4288779
弥生,11,40.65970925,140.373073264341
櫻田,11,34.7591875,138.7932146
旭岳,11,43.6636015,142.8541374
華山,11,25.0442253,121.5250255
虎の門,11,35.6701871,139.750056
海牙,11,52.0799838,4.3113461
川尻,11,32.7437652,130.6799144
布施,11,34.6641148,135.5635982
香川,11,35.3565035,139.3997553
バベル,11,25.55083605,80.7777566145783
墨堤,11,34.7644488,134.8012503
琴平,11,34.1920034,133.8214374
下妻,11,36.1820063,139.9644363
鬼ヶ島,11,34.7881525,135.2340941
十王,11,36.6713814,140.6859881
藍染,11,49.564665,3.620686
秦淮,11,39.71883075,113.140646177481
象潟,11,28.315014,109.7340671
龍王,11,35.6688016,138.5195034
土肥,11,34.902409,138.814992
東谷,11,35.8865,128.6355
武隈,11,37.928881,102.6359886
湊,11,34.5705767,135.4600002
打上,11,34.754444,138.0854165
擇捉,11,28.0967613,86.659654
箕山,11,35.5867957,110.9608466
畔,11,35.4338536,69.7930899
今出川,11,35.029394,135.7593689
津久井,11,35.703592,139.7823456
矢口,11,35.5172853,134.0698955
辻元,11,31.2591976,130.4449798
玉村,11,22.8226,108.797
横山町,11,39.3035827,140.5657366
コルシカ,11,35.6463399,139.7043726
大洲,11,31.345115,107.650683
テキサス,11,35.7315488,139.5405614
カリフォルニア,11,36.7014631,-118.755997
墨西哥,11,23.6585116,-102.0077097
ガヤ,11,24.7964355,85.0079563
レマン,11,49.9761389,5.4938631
鯖江,11,35.9435986,136.1889388
小牧,11,35.2889284,136.9279765
小城,11,33.2856312,130.1986527
休屋,11,35.2289285,113.4415477
日高川,11,35.0082278,136.9913846
上宝,11,28.7427373,115.6990117
多治見,11,35.3351999,137.1208133
狭山,11,34.5163629,135.5485225
武石,11,34.2484488,132.5652498
ベルファスト,11,54.596391,-5.9301829
みなかみ,11,36.6785606,138.9991545
遠野,11,39.3324341,141.5311486
余部,11,35.6487624,134.5570701
益子,11,36.4631984,140.0886743
与謝,11,35.4663655,135.0799513
舎衛,11,32.138518,120.4487875
チリン,11,11.6102055,8.51278743017899
赤羽根,11,35.3496502,139.4303603
斗満,11,7.4359845,-7.5494633
楢山,11,41.9521771,140.7297966
雄山,11,34.088433,139.5280135
尾上,10,34.667341,133.8681532
室津,10,39.6060456,141.1432126
黒崎,10,33.8665599,130.7652461
烏山,10,31.1161559,109.8975228
安西,10,25.0582843,118.1817065
手向,10,25.04238595,121.528111203535
島尻,10,35.6734106,139.8874485
伊平屋,10,35.6501239,139.4488841
真壁,10,26.10588,127.6929009
谷町,10,34.3107203,133.863646101998
ベンガル,10,35.7021597,139.7695744
ボヘミア,10,40.7694091,-73.1148664
平潟,10,37.736699,139.034682
黒神,10,31.878919,130.001100740102
加治木,10,31.739267,130.6706122
井の頭,10,35.6936527,139.583691
十軒店,10,36.3028094,136.3102176
大倭,10,7.0648306,125.6080623
御蔵,10,35.9041684,139.6694845
半田,10,34.8940196,136.9304529
三笠,10,35.2851844,139.674341266669
瀬田,10,34.9870804,135.9254689
天生,10,28.3946,106.432
新,10,42.4804953,85.4633464
八ツ橋,10,40.8012131,140.767594
柏の葉,10,35.8934481,139.9525326
クラ,10,-37.05995995,174.944542041295
國分寺,10,35.7000276,139.4804328
北魏,10,31.4703736,117.2395463
町田,10,35.5420722,139.4454358
下諏訪,10,36.0720188,138.0848582
館林,10,36.2465491,139.5277929
ポンペイ,10,40.7491267,14.5006415
趙,10,37.7491376,114.7699619
鉄嶺,10,42.2895233,123.8394899
土山,10,34.7205545,134.8888472
海城,10,40.8515302,122.7475513
ウイスコンシン,10,44.4308975,-89.6884637
小杉,10,36.7207246,137.0927359
竹原,10,34.339309,132.9100006
紀の国,10,39.4172973,140.5701811
角筈,10,26.238165,127.755898
たな,10,-18.9100122,47.5255809
浜屋敷,10,34.81681545,135.571080909703
菜畑,10,34.6856167,135.7067695
赤岳,10,35.9708172,138.370098
田原町,10,35.709842,139.7907747
マリ,10,16.3700359,-2.2900239
空知,10,39.9828837,116.3636506
スラヴ,10,38.2602171,140.8680831
箱崎,10,33.6180172,130.4268669
吉田,10,37.68706,138.8786948
小仏,10,35.5500935,136.9602437
今治,10,34.0641845,132.9936721
江差,10,28.96232645,118.235919385544
東晋,10,46.7402,127.21
爪哇,10,31.7245793,115.0455237
突厥,10,34.6832764,135.5143335
流沙,10,24.5510228,110.4550307
小菅,10,35.7586732,139.8126428
我孫子,10,35.872742,140.0107711
大江,10,35.3887751,135.147541
オーストラリア,10,-24.7761086,134.755
ケンブリッジ,10,52.2055314,0.1186637
宗像,10,35.4136651,133.3575927
アフガニスタン,10,33.7680065,66.2385139
浦河,10,35.8589883,139.6571882
三浦,10,35.141664,134.0780212
荒沢,10,38.503553,139.780133
農鳥,10,35.930533,136.829792
梁川,10,35.606018,139.0376821
鶯谷,10,35.7216638,139.7779486
会稽,10,34.889277,113.614013
ピーピー,10,7.67174,22.7030797
日出,10,33.3691967,131.5424626
比企,10,33.9545565,132.1934966
立田,10,34.6861449,133.8352624
フランドル,10,34.7108574,135.4924868
西湖,10,30.2459837,120.143131672897
山方,10,35.1119837,133.9979111
見付,10,34.736198,137.858962
二本松,10,37.5894592,140.4355421
鸞,10,31.7383487,116.5142252
園部,10,35.1024868,135.483138
汐留,10,35.6646201,139.7604893
パレスチナ,10,31.46242095,34.2627165721307
堂島,10,37.5545985,139.9119261
曳舟,10,35.7183056,139.8167501
吉城,10,37.0670262,112.9686372
唐山,10,39.6295951,118.1738712
飫肥,10,31.6273825,131.3619584
弓削,10,34.9255925,133.9577761
東金,10,35.5602766,140.3636144
三川,10,33.9324696,111.3839687
大木戸,10,34.4875735,134.1718339
柏原,10,35.3447896,136.4028328
玖珂,10,34.0971923,132.0823683
作州,10,22.688611,107.496944
寺本,10,35.0000346,136.8750988
京洛,10,39.6192709,-104.9005721
粟田口,10,35.0088232,135.7828165
江島,10,34.8679855,137.4417251
伊奈,10,34.8024557,137.3550449
宮下,10,35.297844,139.9275782
リヨン,10,45.7578137,4.8320114
ロス,10,46.9885631,27.956855
丁抹,10,33.0776081,74.2757428
ダラ,10,32.6224342,36.1109696
遠田,10,33.4515527,130.5393084
古川,10,38.5705529,140.9679338
野島,10,31.86611165,129.960241440109
嵯峨野,10,35.6949911,139.7657971
シアトル,10,47.6038321,-122.330062
巴,10,44.3053476,17.5961467
埴,10,47.1810051,7.41540498300997
ヴェルサイユ,10,48.8035403,2.1266886
武生,10,35.9031163,136.1710672
大岳,10,32.8295429,129.8052851
木沢,10,35.3474863,137.9513311
野辺山,10,35.9553038,138.4746495
黒平,10,39.9202111,140.1098983
十文字,10,39.2207256,140.5261311
北佐久,10,44.7440678,142.0486078
宗清,10,35.4298986,136.6730634
渋民,10,39.8350179,141.1545995
好摩,10,39.8739996,141.1735507
布引,10,34.1770997,135.1834936
名草,10,34.353824,131.651555
立野,10,32.8774907,130.9657794
馬場先,10,35.5319099,135.1951017
太秦,10,35.0169974,135.7010879
鴨緑,10,48.5478238,122.1374075
チャンタン,10,-0.9158281,-78.6452758
由利,10,37.629185,138.949726
金山,10,35.1433669,136.9006187
広河原,10,35.2495584,135.7662987
生月,10,35.4225239,138.1396386
湯川,10,33.6094766,135.9248818
アラスカ,10,35.1193778,136.8166137
新郷,10,35.308611,114.051111
ウエリントン,10,-41.2887953,174.7772114
登米,10,45.5028155,9.15431945077356
バワリア,10,48.9467562,11.4038717
片原町,10,34.3456783,134.052941
根古屋,10,34.966419,138.465643
上郡,10,34.8660983,134.3533789
毛無,10,-6.5962986,106.7972421
久万,10,33.657872,132.894815
酒匂,10,35.278097,139.189892
永田町,10,35.67505,139.741228
橘町,10,35.0167602,135.763362
戸頭,10,35.9293333,140.014095
新利根,10,35.912478,139.969282
莫斯科,10,55.7504461,37.6174943
ラウ,10,46.2398971,28.0178113
長堀,10,36.3570723,140.4530919
袴腰,10,31.592245,130.6020629
峨眉,10,22.1922032,112.820878
餌差,10,35.9497251,105.538014
石鐵,10,28.882941,109.509522
由布,9,36.3507978,140.3062895
小野川,9,33.568862,133.391959
寺島,9,33.2537494,129.069987601582
奄美,9,3.1428074,101.709443664125
石垣,9,31.2591976,130.4449798
伊皿子,9,35.6409376,139.7378552
テームス,9,5.6039564,100.4675861
犬吠,9,35.706245,140.861175
長洲,9,24.5164639,117.6424895
原釜,9,37.8310998,140.9561454
女貌,9,38.3069696,140.853499385611
木部,9,36.0725438,139.232409
掃部,9,5.1335261,10.4889585
兜町,9,34.396912,132.437325
基隆,9,25.1317232,121.744652
台南,9,22.9912348,120.184982
フエ,9,16.4639321,107.5863388
神島,9,34.54634815,136.981938932535
長浜,9,35.3784499,136.2651891
吉良,9,34.463934,136.596506
稲荷,9,34.9668055,135.77067
月瀬,9,34.4376138,131.886302
林町,9,34.3005438,134.069878
バーゼル,9,34.7782217,135.6610689
江西,9,28,116
琅邪,9,42.95506735,-83.25468605
青州,9,36.6841879,118.4738162
河西,9,24.1450276,102.6480449
八橋,9,35.5031458,133.6734517
貴船,9,35.139631,135.636724
宮古,9,39.6398721,141.9475248
大峰,9,23.4353411,108.6010614
忠別,9,34.0585093,132.9972129
大藪,9,34.533817,133.963046
山手,9,35.4272033,139.6462837
藻岩,9,29.3418857,117.7987547
一番町,9,35.68735,139.741509
清水谷,9,23.73144,121.30141
小禄,9,26.1965305,127.6670333
ホロ,9,6.0536561,121.0002644
霞町,9,35.103712,136.9399
底倉,9,35.244144,139.056258
田邊,9,34.628789,135.5250123
安中,9,36.3316945,138.9145889
田上,9,31.5774925,130.5273184
寺泊,9,37.6202989,138.8139358
胆振,9,37.354421,-81.8002651
神泉,9,35.6572159,139.6934884
荊州,9,30.3375134,112.2337792
原,9,35.124907,138.7937498
ウェストミンスター,9,39.8366528,-105.0372046
野間,9,34.772334,136.8607141
礫川,9,35.69797,139.4135537
足羽,9,36.020829,136.253535
ミシガン,9,43.6211955,-84.6824346
みかげ,9,42.942228,142.93608
御坂,9,39.2294151,140.1399927
外神田,9,35.2587798,138.6151377
笠原,9,37.0554937,140.1556233
正法寺,9,35.5403355,134.8115926
東牟婁,9,33.6314485,135.7953071
鳥屋,9,37.928699,139.203249
有田,9,33.1835918,129.8819711
忠清,9,30.05518,107.8748712
宇佐,9,33.5321878,131.4120019
五十鈴,9,22.5721419,114.2136916
春木,9,34.477496,135.392029
日蔭町,9,35.5418488,135.4725707
南アフリカ,9,-28.8166236,24.991639
沼尻,9,40.7297061,141.2241841
肴町,9,34.70655,137.729522
天橋,9,36.6777745,116.9813635
足助,9,29.5221168,95.4256126
庵原,9,25.1392165,115.3883773
南,9,29.3644727,112.3905651
神縄,9,35.402622,139.045952
サハラ,9,22.25,9.8
梅田,9,34.7041466,135.4973385
姨捨,9,36.502817,138.093209
大浦,9,33.9993042,132.7754507
清水町,9,35.10764,138.898974
首陽,9,37.80513,113.120723
アマゾン,9,-4.479925,-63.5185396
西洞院,9,23.2653273,120.4440467
光,9,33.9738936,131.9147098
関戸,9,35.653095,139.454916
相知,9,33.3469265,130.0199157
菊川,9,34.7616475,138.085227
阿武,9,34.288476,104.1432088
下渋谷,9,34.822655,135.4384042
大沢,9,37.837243,140.2004877
堀田原,9,35.1202163,136.9198541
岩木,9,36.5807398,137.1845187
練馬,9,35.737877,139.6540818
矢場,9,36.2175403,139.05342
御船,9,32.7091607,130.7945088
杏花,9,32.9139151,119.8476035
足守,9,34.7293208,133.8033439
花山,9,34.6815627,135.8656783
高峯,9,36.0648956,133.0877545
福原,9,47.94063,134.2574179
雅典,9,37.9839412,23.7283052
山寺,9,38.3095946,140.434729
一橋,9,34.6067325,135.6369457
龍田,9,22.7282382,114.354787
名越,9,34.9873958,137.6268549
ニュージーランド,9,-41.5000831,172.8344077
湯ヶ島,9,34.887012,138.924261
狩太,9,36.1757081,137.9865122
鎌田,9,35.9813997,139.6530635
寒川,9,30.6562575,113.8329583
トロヤ,9,-15.9451113,-70.7760704
不二,9,27.619203,102.8628882
インスブルック,9,47.2654296,11.3927685
御館,9,36.0074524,139.6084237
臼井,9,37.774121,139.055004
南郷,9,31.5360072,131.3726464
明州,9,37.5074547,110.2584153
加太,9,34.2751642,135.0805642
島崎,9,37.586129,138.765871
中禪寺,9,36.7312192,139.491697156085
赤岩,9,28.8204457,104.5777648
奥穂高,9,33.0376202,131.6044192
石動,9,36.672534,136.8655312
トウ,9,16.5986677,80.8905362
須彌,9,39.7127512,141.181724191744
笠取,9,35.5619,108.531
尾瀬ヶ原,9,36.9398423,139.241596629497
露月,9,32.4747584,130.4275077
魚津,9,36.8264529,137.4057296
月夜野,9,36.6906107,138.9841335
北秋田,9,43.737887,143.619622
糠部,9,27.4673163,89.1040434
阿古,9,34.0660987,139.484868
白子,9,34.8340555,136.5896545
阿多,9,32.8541964,94.990254
福良,9,29.3544265,117.2099191
小谷,9,36.21687,136.853372
邑楽,9,28.6987058,105.1335751
パリス,9,35.7317202,139.6391892
山野,9,33.6101,130.706749
信府,9,38.430304,112.588658
揖保,9,4.5986817,101.0900236
クム,9,9.554058,23.627667
ギゼー,9,29.05403575,29.4190807303687
加須,9,36.122974,139.595706
海豹,9,32.1245779,117.3053956
敷香,9,49.2216366,143.1015759
桜町,9,35.522167,137.8295109
ラッサ,9,45.7684731,8.0130682
小平,9,35.7370404,139.4882532
由布院,8,33.2624838,131.3549106
速見,8,33.520668,132.672287
龍頭,8,37.5740737,127.0380657
おぎ,8,33.2738076,130.2171043
倶知安,8,42.9020963,140.7451832
白須賀,8,34.695792,137.50543
粟田,8,36.20073,140.235529
踏入,8,34.1987687,77.4247932
勢州,8,22.8726,108.84
台町,8,35.71869,140.826896
はつか,8,34.9202736,135.2766478
百間,8,36.0197867,139.722477
あきた,8,39.6898802,140.342608
ロッキー,8,35.7057425,139.781278
なは,8,26.2122345,127.6791452
三戸,8,40.3954566,141.2731571
西成,8,22.2722291,112.8560042
サバ,8,5.4257359,117.0326392
水なし,8,33.5336771,132.9215133
新発田,8,37.9439691,139.3349158
流沙河,8,27.9946637,112.1009064
相良,8,34.684121,138.204052
チャタム,8,-43.917534,-176.1873409
大里,8,25.6074778,100.2651597
安曇,8,36.221169,137.686649
児玉町,8,34.4790515,136.6862404
ルツェルン,8,47.0505452,8.3054682
ジョルジュ,8,34.46087185,133.3085723
函谷,8,29.5223,106.367
西伯,8,22.6196887,97.2992821
斗米,8,24.3926,105.291
臨安,8,30.2371364,119.7192631
堀切,8,35.7432581,139.8176989
石津,8,34.5553468,135.4549346
長島,8,34.2631125,132.871712944305
茅野,8,35.9942674,138.1521884
須坂,8,36.6567509,138.3044761
久堅町,8,35.1759862,133.7319413
第六天,8,35.5558457,139.732507
小県,8,34.1903523,116.9417055
マルセル,8,34.3907182,132.4530645
神居古潭,8,43.7320526,142.2013157
信田,8,25.9173875,112.1916318
わた,8,33.8798562,35.4934932186915
浪逆,8,34.4316622,-118.3775808
大城,8,38.6994744,116.6371407
粉河,8,34.2707749,135.4043711
男鹿,8,39.8847498,139.848687
村田,8,37.567308,138.734586
土御門,8,28.6331911,93.0731067
大藤,8,34.350992,131.7156672
野木,8,36.2303052,139.735052
古屋敷,8,35.885525,137.91946
フィラデルフィア,8,39.9527237,-75.1635262
サマルカンド,8,39.6634028,66.9441609842757
大山,8,36.6104149,137.2978712
児島,8,34.4627408,133.8076652
五色,8,34.230427,135.8468267
檜原,8,38.293606,139.535587
苫小牧,8,42.6398186,141.596771
登別,8,42.4520087,141.1808029
富沢,8,38.2144503,140.870681
石和,8,32.017801,113.993328
カルタゴ,8,9.81589045,-83.6943028875124
マダガスカル,8,-18.9249604,46.4416422
鳳凰,8,27.9513305,109.5941968
嘉陵,8,30.7610467,106.0678068
里,8,47.1416307,9.5531527
多良,8,33.0249287,130.17609
花園町,8,34.6442805,135.4965761
原町,8,34.6895717,135.1871543
笠松,8,35.3743074,136.7644054
安宅,8,23.577806,119.603302
三方,8,35.5557398,135.9093925
龍動,8,41.2338195,129.455303
入野,8,34.4607402,132.8517071
毛受,8,35.2969982,136.7774713
根来,8,34.2813939,135.3066111
易水,8,26.5150216,112.3926043
田沢,8,36.300698,137.9411696
淡路町,8,35.6950614,139.767473
仁木,8,43.1532815,140.7697923
六甲,8,34.719614,135.2341591
ハヤ,8,33.746941,135.35555
古川町,8,35.1024732,136.9511536
ツロ,8,32.7646178,133.0114788
ペルー,8,-6.8699697,-75.0458515
ドーバー,8,51.1251275,1.3134228
マンチェスター,8,53.4794892,-2.2451148
坂本,8,35.070502,135.8713317
大野原,8,36.0186342,139.0940063
三谷,8,34.3419772,131.6248181
やまなし,8,35.6399328,138.6380495
景山,8,31.0161047,113.1280679
魚見,8,35.8539266,136.2861192
臨川,8,35.776256,113.2717348
本荘,8,36.2047875,136.2030515
飯塚,8,33.6286803,130.6895265
牛津,8,51.7520131,-1.2578499
洛東,8,24.6779776,121.7745987
山崎,8,42.3142961,140.2746056
冠山,8,35.7797915,136.409395
峰,8,34.014722,106.77
油小路,8,23.4855806,120.4353615
生口,8,34.7066583,108.6976386
西町,8,34.3464285,134.0241315
高津,8,35.603179,139.6169636
井川,8,35.348094,107.431358
常呂,8,36.2455,115.521
カント,8,35.9574767,139.8670582
サモ,8,-13.7693895,-172.12005
金甲,8,31.103882,106.444836
ヤマト,8,32.699616,131.049859
小本,8,35.1492884,136.8613687
辛崎,8,31.2723817,116.7672664
アイスランド,8,64.9841821,-18.1059013
茅町,8,34.7615678,136.1357438
名護屋,8,36.6627007,114.188543902502
北沢,8,35.696998,138.129895
カノ,8,11.8948389,8.5364136
ユラ,8,46.7833625,5.7832857263549
三條,8,35.0090175,135.7723336
福野,8,35.646046,136.951462
幸手,8,36.0748991,139.7150064
遠賀,8,27.8164501,115.0779395
花苑,8,28.5755672,109.4769796
小峰,8,32.671759,131.071468
木場,8,35.669416,139.8065455
東沢,8,36.184681,138.253028
弥生町,8,35.6908488,139.6755198
大喰,8,24.1553566,110.0159397
雲影,8,35.1062618,136.9346465
左門町,8,35.6859124,139.7206986
オムスク,8,54.991375,73.371529
カチン,8,26.0207656,97.4919258
狼森,8,40.5592489,140.471524159162
盗森,8,48.8677091,2.3457466
馬入,8,35.335615,139.370198
ムー,8,-20.2759451,57.5703566
澤田,8,40.784713,140.580715115016
北穂,8,31.8779901,113.2878388
木更津,8,35.3816066,139.9262431
潤州,8,32.1959525,119.3980401
鳥部,8,23.31556,120.607
小川山,8,35.9094463,138.6122912
蓼科,8,35.6774857,139.7364864
不動沢,8,36.567059,138.815414
久田,8,38.9219999,139.8460919
小河内,8,38.262639,138.459391
攝津,8,34.7801513,135.5614065
大仙,8,31.1989633,107.5078704
高塚,8,34.6905007,137.6816901
豊野,8,36.7109116,138.2750389
洗足,8,35.6101514,139.6941664
春野,8,34.4688439,133.8029958
稲毛,8,35.6370846,140.0925674
箕面,8,34.8347808,135.468244
山畑,8,37.563211,140.4136675
入江,8,35.307777,136.273924
篠の井,8,36.5774147,138.1381842
アワラ,8,36.2113447,136.2290431
置戸,8,43.6761479,143.5887015
婆羅,8,23.9322842,105.5655704
刀根,8,35.603874,136.151551
千川,8,35.7383242,139.689366
倉岳,8,32.4277996,130.3269638
西洞,8,35.4331216,137.1653519
真土,8,33.224181,132.744757
永昌,8,38.2471544,101.9713736
越中沢,8,35.5317855,139.0964724
浦潮,8,13.6373724,100.5920243
宿河原,8,35.6154495,139.5796278
網島,8,33.8475364,118.5554194
バンガー,8,-8.7288046,15.169027
横寺町,7,35.7019549,139.7353911
根の上,7,35.180464,137.064674
櫻井,7,34.5132193,135.8466795
白金台,7,35.6381027,139.7265652
カプリ,7,24.4634781,80.4326209
長与,7,32.8190302,129.8793666
魯西亜,7,37.3779309,121.5210253
鮎川,7,39.272354,140.066931
二俣,7,35.4131275,135.1545354
二條,7,35.0122777,135.7422283
石町,7,37.5633295,126.9747869
雄勝,7,43.7553336,143.6444592
三郡,7,45.3344796,125.207758
恩納,7,37.5667573,14.2807473
鳳,7,34.5322454,135.4591753
桐生,7,36.4111882,139.3329094
二条,7,35.0122777,135.7422283
黒海,7,43.87280435,33.9938155867774
幌向,7,43.1514461,141.6554135
九竜,7,22.3116452,114.1767885
フランクフルト,7,50.1106444,8.6820917
虎頭,7,25.2359479,118.0321413
後周,7,31.5688799,119.3787085
熊岳,7,40.1743212,122.1353519
浪速,7,44.0977642,143.8582742
下京,7,37.252955,140.66275
厚木,7,35.4433894,139.3783891
島田,7,34.8301289,138.1741848
氷見,7,36.8493922,136.9908551
十国,7,42.6609776,129.2187336
なら,7,-0.5252306,166.9324426
小貝,7,23.1422054,113.271421512712
かさ,7,33.9876533,51.4428856
かうべ,7,34.6932379,135.1943764
山鼻,7,25.0807636,121.2852007
桜川,7,34.6682269,135.4902944
白楽,7,35.4896753,139.6279215
須崎,7,33.3926318,133.2931682
漠北,7,27.042809,113.91373
権現堂,7,35.481781,140.111917
芝山,7,25.1030034,121.5225195
潯陽,7,32.906389,109.416667
ウェールズ,7,52.2928116,-3.73893
メッカ,7,21.420847,39.826869
バイエルン,7,34.8076112,135.6748898
瀧野,7,34.4624361,136.0582602
根府川,7,35.2026663,139.1387321
東山梨,7,35.694184,138.7026487
楊家,7,47.8377611,126.7441797
讃州,7,34.31343965,134.043789292543
北斉,7,38.9300032,115.3831601
日坂,7,34.8132903,138.0794229
桶川,7,35.9986994,139.5639154
上尾,7,35.9733233,139.58846
玄菟,7,43.948154,4.806495
浮穴,7,58.02446735,14.4594804693033
橿原,7,42.0580457,126.7281494
鳳来,7,29.399862,107.296521
三室,7,35.8851646,139.6762275
愛宕下町,7,35.4798192,135.4067654
賀古,7,35.5355076,134.849122
イタ,7,-27.275006,-52.3381725
鳥海,7,35.4654251,139.3590724
宮の森,7,43.0469871,141.298464360019
扇,7,35.8894105,109.1357285
茨木,7,34.815181,135.5621113
驪山,7,41.1452706,123.0206182
會稽,7,34.889277,113.614013
大手町,7,35.6867882,139.7662244
黒竜江,7,48.0000047,127.999992
ジブラルタル,7,36.1285933,-5.3474761
岸和田,7,34.4603225,135.3781003
ウォータールー,7,8.338977,-13.069573
日高見,7,38.3310737,140.359
清武,7,31.8593828,131.3892315
韮山,7,35.0535301,138.9453333
坂田,7,35.3359081,136.2878023
久山,7,35.6440099,113.5314273
鴻の巣,7,38.8749474,140.932318
妻籠,7,35.5773707,137.5963052
城西,7,35.1317137,137.8621863
犬山,7,35.3802772,136.9457636
斑鳩,7,24.1989349,109.9172016
川辺,7,34.2570092,135.2668764
高屋,7,5.7057571,100.9994459
諫早,7,32.8514832,130.0413828
崎陽,7,26.5821057,111.8351032
武陵,7,29.0572367,111.6775679
皆川,7,37.662154,139.063761
河合,7,36.5082704,140.5171055
網代,7,35.0437146,139.0811875
大伝馬町,7,35.363548,136.622374
正直,7,31.9745171,106.595307
久井,7,48.4519774,125.3536688
西伯利,7,23.68387755,120.432009874261
船場,7,32.5946596,128.6565409
パンジャブ,7,30.9293211,75.5004841
西牟婁,7,33.6246922,135.5136283
新屋,7,39.6770069,140.087555
八達,7,31.6509938,94.7805143
水道町,7,32.8029038,130.7131313
須佐,7,34.6218854,131.6055926
桃井,7,35.647786,139.7039034
東浦,7,34.9492661,136.9704553
粟島,7,38.463664,139.242879231387
ゴタ,7,50.9494849,10.7014435
エチオピア,7,10.2116702,38.6521203
タライ,7,11.4765951,8.71303303484095
ケンシントン,7,34.902314,135.71960635
コリント,7,37.9385413,22.9273768
上の山,7,40.0020103,141.0353458
浦戸,7,33.496738,133.569449
小金原,7,33.77406515,113.155906940456
富津,7,47.174394,132.516788
南魚沼,7,33.9596816,131.2609757
モントルー,7,43.617944,6.765164
うみ,7,33.5677324,130.5110964
ブリュッセル,7,50.8465573,4.351697
紀三井寺,7,34.185198,135.1900596
不来方,7,12.4777805,-3.58795713101245
檜山,7,24.7515277,121.4666003
大田原,7,34.8038357,134.1541506
牡鹿,7,37.5940358,61.8397935
美ヶ原,7,35.304832,136.290679
苗場,7,34.2961358,116.0251014
猿若町,7,35.0980165,136.8659275
天祥,7,24.1825147,121.4939579
仁川,7,37.456,126.7052
忍路,7,43.2033576,140.8711597
三軒家,7,34.3072339,133.1168585
丹沢,7,54.3706858,18.6129821033008
根上,7,36.5563655,137.1743351
中之島,7,34.6899015,135.488097057365
サンダカン,7,5.8391274,118.1158598
並木,7,35.5563994,139.3821526
鷲羽,7,34.524525,105.8433418
坂越,7,34.7688666,134.4174108
野川,7,35.6490422,139.5800621
草加,7,35.8282516,139.8033621
河原,7,24.1014769,115.0577538
更科,7,42.7200659,124.7568885
長樂,7,25.8993802,119.5408624
永平寺,7,36.0557075,136.35601521229
栂尾,7,24.4511955,121.4663928
涸沢,7,35.2477266,115.4464761
とどろき,7,35.608362,139.6480235
南歐,7,55.3997225,10.3852104
若林,7,35.0265199,137.0963553
一の谷,7,35.4129885,133.4483823
枕橋,7,28.89809,117.035481
八海,7,45.3166805,141.644571
北埼玉,7,40.789046,141.28928
大井町,7,35.6063813,139.7348903
田方,7,35.3997429,133.3806705
アジヤ,7,8.533333,12.283333
鶴田,7,37.1144827,79.9200157
苫田,7,37.563211,140.4136675
王滝,7,22.9637,109.043
子持,7,35.6118288,139.392534252017
破魔射場,7,34.9914718,135.7610142
下鴨,7,42.9962395,-7.8607156
堀の内,7,35.2636035,139.686646
上ノ原,7,34.2161975,131.8114125
豊玉,7,36.2523,116.911
祝町,7,37.933686,139.051688
榎町,7,34.301357,135.1463988
伊吹,7,35.403274,136.37779
黒井,7,37.1840495,138.2683484
下新川,7,34.8398372,135.6126149
大河原,7,38.0474645,140.740428
一乗,7,32.941419,113.93606
杉並,7,37.870009,112.5452739
長瀞,7,36.0952833,139.1124789
若江,7,34.6556314,135.6081327
毛馬,7,-3.03553825,-60.0457530331466
木曽福島,7,35.8439371,137.693597
タウ,7,30.9248944,101.1574419
小南,7,30.9482463,114.0161965
王地,7,35.1196758,134.0672168
大槌,6,39.3584659,141.9001305
大庄,6,36.6194477,137.2755905
三筋町,6,35.4945713,132.8248172
黄瀬,6,39.9798362,140.4024699
ユートピア,6,34.67332005,135.469642105135
愛蘭土,6,48.8695169,2.3345894
高市,6,34.0284488,133.011103
今帰仁,6,22.9691835,120.2999731
与那国,6,24.4558713,122.9876807
玉城,6,34.369154,115.902169
真和志,6,39.0962352,111.8347126
小松,6,36.4018391,136.4528145
玄武,6,24.4938988,110.9559926
矢来,6,31.6893711,130.3033114
大須賀,6,35.7364093,139.8455885
今の山,6,32.8575666,132.8500894
澎湖,6,32.2839033,117.3181028
なで,6,21.8747273,108.1756648
跡見,6,34.0702037,130.9034869
荒山,6,30.2841703,118.1299559
畠村,6,35.356306,136.2818042
粟野,6,35.616819,136.028376
ハバナ,6,23.135305,-82.3589631
田人,6,36.94230875,140.660635878626
斑尾,6,25.6028,110.475
一宮,6,34.283225,134.02259
梅ヶ枝,6,36.20533735,133.362771916243
くめ,6,35.06176,133.922922
みえ,6,34.7339685,136.5154489
鶴舞,6,35.1562141,136.9172966
呉淞,6,22.5978339,120.2796
蔡,6,45.6126766,10.3150854
滄,6,29.8556443,90.8749807
淮南,6,25.9847407,117.7367604
紹興,6,29.9992425,120.576854
豫州,6,30.4856296,130.810087514682
淮安,6,33.5524785,119.1075773
黔,6,27,107
江陵,6,37.76452,128.8993979
釜山,6,35.1799528,129.0752365
鈴ヶ森,6,39.0120537,140.9171704
砧,6,34.98635,136.079677
指ヶ谷,6,34.72263,138.1764961
小名木,6,35.654809,140.183221
岩殿,6,34.67051,138.8523055
鵠沼,6,35.3214239,139.4826015
白石,6,35.8676218,139.9756876
宇品,6,45.708116,126.6823062
大三,6,34.6641313,136.3687487
宝塚,6,34.811665,135.3402872
高鍋,6,32.122192,131.5334675
燕岳,6,36.4068593,137.7127725
戸の口,6,34.238051,132.122512
千駄木町,6,36.2353052,137.1886605
心斎橋,6,34.6745173,135.5003566
おらんだ,6,52.2434979,5.6343227
ゴビ,6,43,107
春日野,6,35.7482529,139.6447502
燕京,6,27.4261378,101.5075349
ムカ,6,45.3358423,27.8228998
久保,6,35.3336854,139.9060856
ふじ,6,35.362799,138.730781
大館,6,40.2880036,140.5565299
六日町,6,37.0671232,138.8758939
豊岡,6,35.5447858,134.8133194
下松,6,34.0088947,131.867972
豊浦,6,42.5800261,140.7154772
後志,6,34.339625,104.625674
池の尾,6,50.9205515,6.9599409
隴,6,38.0000001,101.9999999
岩鼻,6,33.9790059,131.2250919
泓,6,28.687547,115.8540042
大湖,6,34.2474487,117.2827788
セントポール,6,51.51378715,-0.09845055141833
曙町,6,35.1553357,136.9318548
上枝,6,44.980196,128.315814
北川,6,31.9719109,104.2934626
大原野,6,34.9138915,135.3053647
幌泉,6,35.4276528,118.0898394
館山,6,34.9959209,139.8618906
霞ヶ関,6,35.674217,139.7527174
丸山台,6,35.3976773,139.5681115
香美,6,22.548127,114.0343446
川田,6,34.0613981,134.204202
エストニア,6,58.7523778,25.3319078
小木,6,37.8091228,138.2637119
アミアン,6,49.8941708,2.2956951
サモア,6,-13.7693895,-172.12005
寧楽,6,44.0300789,141.7821758
宇田川町,6,35.6620752,139.6974957
今出,6,33.5879189,130.2473614
加羅,6,27.4229,106.095
一大,6,37.824098,140.4933532
アラズ,6,41.6310215,-0.751451
佐波,6,32.9724755,131.9018836
球磨,6,35.696017,139.6671014
田子,6,33.4902816,135.6779393
瑞穂,6,44.2660799,142.3963613
ポーランド,6,52.215933,19.134422
ハイチ,6,19.1399952,-72.3570972
高田,6,34.516288,135.7448226
一ツ橋,6,35.693171,139.757346
うぜん,6,43.3990441,-0.433093
丸子,6,22.2790146,114.1724833
一谷,6,34.9908201,137.0087202
神樂,6,43.7607934,142.349417
弁天,6,37.913982,139.0588484
八郎潟,6,39.9474977,140.0783833
天橋立,6,35.5680023,135.190638152182
宍道,6,35.4065597,132.9085798
ジャガタラ,6,33.3707891,129.5531734
柴田,6,35.0724042,136.9090763
可児,6,35.4225467,137.0553687
伊豆の国,6,35.035531,138.961915
北庄,6,32.0643095,118.6285998
陣場,6,40.3991088,140.6075603
下馬,6,38.3056276,141.0151519
北周,6,22.0782979,112.7327996
南郡,6,35.695624,114.470698
殷墟,6,35.0788834,135.5633345
勿來,6,24.8639758,121.5512547
東町,6,34.3406109,133.1765581
八条,6,43.717028,142.0487435
マーシャル,6,59.91425735,21.9546804208852
津留,6,33.2861491,130.2723598
川内,6,31.8137835,130.3122563
南海道,6,33.50694785,134.061441030426
江北,6,29.6219118,106.6818547
岡町,6,34.7791604,135.4650058
柳条,6,43.6031801,123.8384138
田の原,6,35.874166,137.499977
高砂,6,43.1001515,141.540788
國後,6,30.5762674,114.3595719
しゃり,6,43.9124057,144.6720651
関が原,6,38.91402475,141.148499098435
南宮,6,36.738654,138.371076
霞が関,6,35.672078,139.7451239
瓊浦,6,25.0688079,102.622999568948
三富,6,35.7675026,104.0059851
尼崎,6,34.7318667,135.4318846
石浦,6,21.8401089,112.520256
加古川,6,34.767787,134.8393773
片上,6,34.7420166,134.1832442
茶臼,6,34.832365,134.685635
在家,6,34.9110032,137.132328
両三,6,27.8849814,102.2657395
宰府,6,33.586802,130.447393866603
荒井,6,34.7578437,134.7936014
佐井,6,41.4300287,140.8647775
三春,6,37.4496368,140.4793865
西脇,6,34.948093,138.396997
君津,6,35.3336425,139.8950942
錦小路,6,31.2813794,121.6714758
車屋町,6,35.009697,135.76032
小串,6,34.1697865,130.9280874
富岡,6,37.335186,141.0226227
東安,6,26.3952429,111.3106069
多度津,6,34.2711186,133.757012
五丈原,6,34.2851368,107.6124607
南陽,6,33.0010496,112.5292693
海老名,6,35.4530142,139.3916744
六箇,6,33.909896,116.2206393
玉江,6,34.4054441,131.3795987
道修町,6,34.6887815,135.5011103
蘇士,6,25.04237,121.5417827
江ノ島,6,35.30008825,139.480645175305
布留,6,35.6529608,139.5467067
弓月,6,37.939863,139.30891
成東,6,35.6084534,140.4108142
初島,6,35.0399383,139.171507053069
多度,6,35.1335399,136.6406941
小野田,6,34.0079811,131.1854093
種市,6,25.05613905,121.599795147047
今井,6,36.5950297,138.1451062
林邑,6,35.1441348,110.6092839
濃尾,6,24.3806,105.466
親不知,6,37.0068414,137.7382409
みちのく,6,35.5348989,139.4732763
那珂川,6,36.714223,140.159842
から,6,30.0443879,31.2357257
アテーネ,6,37.9839412,23.7283052
フロリダ,6,34.9560305,137.1665837
マジョーレ,6,37.03081,14.7037965
ブリストル,6,51.4538022,-2.5972985
針ノ木,6,38.4772462,141.0977027
マルタ,6,35.8885993,14.4476911
大良,6,22.8440335,113.2477945
トネ,6,35.8573615,140.138754
夕顔,6,35.588155,111.9184005
久六,6,40.534132,139.497704
野方,6,35.7196957,139.6531263
赤間,6,33.8082939,130.5695947
三本松,6,34.5787051,136.0363137
風連,6,44.292176,142.4214415
五戸,6,31.3536127,118.4277477
上北,6,32.8211452,111.6358596
狩宿,6,35.3016078,138.588902
平壌,6,39.0046949,125.7358714
奥津,6,35.2196428,133.9334642
鳥島,6,30.484415,140.300234537475
タンタ,6,30.7833666,30.9982536
グリーンランド,6,77.6192349,-42.8125967
徐州,6,34.2050708,117.2782967
信貴,6,23.2084167,110.3569871
箒川,6,36.9660154,139.8303141
笊森,6,38.9712995,140.8140163
阿蘭,6,1.3145435,103.8946878
高岳,6,35.1741558,136.9162633
谷原,6,36.0163726,106.2386742
倶利伽羅,6,36.672509,136.7916218
小栗栖,6,34.3973138,135.9566688
岩菅,6,36.2952877,140.2764539
野口五郎,6,22.45056915,114.032793796269
荒船,6,36.084732,139.437677
北谷,6,34.2764746,131.6447711
立科,6,30.0443879,31.2357257
巴黎,6,48.8588897,2.32004102172008
矢作,6,35.285313,139.180113
大淀,6,34.775,108.609444
洞川,6,26.1050432,103.0615453
南柯,6,23.1072447,120.3019684
東葛飾,6,32.163593,118.541618
金川,6,31.5365939,101.8098326
甘粛,6,38.0000001,101.9999999
楡木,6,36.5071518,139.7453712
一志,6,32.2750989,119.1790898
嬬恋,6,56.4884,58.847012
中之条,6,36.5853523,138.8521738
猿ヶ京,6,36.725538,138.885316
東小川,6,35.0979107,136.8194306
小塚原,6,38.172074,140.935321
久喜,6,36.0656137,139.6775246
こはま,6,25.75,94.166667
真庭,6,36.6734354,139.0033591
周智,6,34.1632275,108.2040679
安積,6,24.9361,104.631
志太,6,34.865226,138.228085
椎葉,6,34.499124,131.6871
飯岡,6,35.7293267,140.683679
北安曇,6,23.193177,115.401092
宮前,6,34.2132217,135.1887578
大倉,6,22.862088,120.533806
秋山,6,41.2366726,140.8788228
川上,6,35.2809304,133.6349326
木原,6,33.243679,130.3203016
国富,6,47.6481242,126.3924718
八雲,6,42.2533273,140.2732585
大葉,6,37.4092247,140.9841652
烏江,6,31.1415158,120.6406744
リーズ,6,53.7974185,-1.5437941
南佐久,6,22.31239425,114.16365249915
泊瀬,6,24.0886,106.927
北信,6,36.9916946,138.559799
菟玖波,6,40.3474471,116.0003714
濱町,6,34.29136785,133.7922648039
大米,6,23.2059,104.941
愛冠,6,43.0205567,144.8446298
北九州,6,39.5070215,116.584492
予州,6,30.4856296,130.810087514682
緬甸,6,17.1750495,95.9999652
末吉,6,35.3263769,140.0642043
笹山,6,35.2682745,138.2763924
からふと,6,50.15947595,143.026441186009
ポートサイド,6,31.1821275,32.3725819650013
幌内,6,43.8575273,142.1186261
閑田,6,21.418165,109.147813
万沢,6,35.204254,138.504929
大子,6,29.7485776,91.4836551
バークレー,6,37.8708393,-122.272863
駒橋,6,40.2010501,140.590262
洒水,6,35.5582579,113.5259557
馬ヶ岳,6,31.1100525,101.8792208
王禅寺,6,35.5861588,139.5224604
呉羽,6,36.719111,137.1657966
パタゴニア,6,-44.99006975,-70.6734314401517
金鱗,5,47.5160431,129.6126818
坊城,5,33.2593594,113.0001059
威海衛,5,37.5120997,122.1152599
田原本,5,34.5528287,135.7909298
熊毛,5,51.5433474,-0.090564
阿里,5,32.502433,80.1056099
葱嶺,5,30.8510272,117.3530381
神樂坂,5,35.7039298,139.7341347
とつか,5,35.4005483,139.534215
大澤,5,34.7595863,138.8309955
コモ,5,-12.2045176,44.2832964
錦江,5,31.7368814,130.6532935
西道,5,37.2421201,131.864715923989
千駄ヶ谷,5,35.6812658,139.7113311
蜀江,5,43.608765,73.76075
平鹿,5,34.8370207,111.2110046
飽海,5,30.4580672,114.5445445
台北,5,25.0375198,121.5636796
羽地,5,29.0051104,108.9144099
マラッカ,5,35.8911104,140.6590047
蒲郡,5,34.8229991,137.2260391
朝倉,5,33.551573,133.4853416
鬼無,5,34.3255264,133.9937666
戸ヶ崎,5,35.8043447,139.858489
くま,5,34.7191915,51.0122844
小松島,5,34.6222471,134.4238906
南清,5,22.3600033,112.7979344
セルビア,5,44.1534121,20.55144
毛呂,5,35.9403972,139.3093003
一の宮,5,33.109508,129.9130082
飯盛,5,33.9812127,130.9274002
新座,5,35.8037343,139.5562
汐入,5,35.2802909,139.6621587
日向和田,5,35.7881631,139.2297257
御油,5,34.8457169,137.3218047
フジ,5,35.362799,138.730781
シナイ,5,-5.1915949,-74.0100174
メッシナ,5,38.1937571,15.5542082
建康,5,49.2037775,119.7326087
安徽,5,32,117
兩廣,5,21.571676,110.550353
蜀漢,5,25.198763,55.2386388
大梁,5,23.5256,108.708
撫順,5,41.8692972,123.924157
平庭,5,24.3201,105.214
溜池,5,35.5963167,139.417782695772
葛城,5,31.8749987,108.6999982
下伊那,5,35.4072749,139.453547
紙屋,5,35.0593741,133.7542182
関根,5,37.8645587,140.1464009
摺上,5,34.996004,135.755028
宮古島,5,24.813957,125.30557898287
しんとく,5,43.0796592,142.8393169
大熊,5,36.742611,137.440702
両替町,5,28.5555811,102.163778
ネス,5,21.3046024,73.9722539
湯元,5,47.0053708,130.1137919
八軒,5,43.0864712,141.3190886
車坂,5,21.5265028,109.8251597
豐原,5,24.2545422,120.7236842
酒折,5,35.6597419,138.5989109
裂石,5,26.8504861,100.4253801
儺,5,33.1933953,130.2919721
宮路,5,36.608892,137.320563
大浜,5,24.3860329,124.2103851
鷹巣,5,40.2319768,140.3694382
小千谷,5,37.3098255,138.8133463
余市,5,43.1869067,140.7947753
妻沼,5,36.2248884,139.3753374
羅國,5,26.4016533,100.280769
平尾,5,34.526951,135.575514
芦峅,5,28.9804412,118.8066897
大岩,5,34.97806915,137.614188065582
寺沢,5,36.386696,137.919419
ケルン,5,50.938361,6.959974
るもい,5,43.941029,141.6368171
寺井,5,36.4518274,136.4595421
費府,5,34.8096167,135.5788971
調布,5,35.6517768,139.5448061
香椎,5,33.659655,130.4441037
沙河,5,36.8616265,114.5112915
宇都,5,25.9543693,115.4104704
虚空蔵,5,34.689516,138.1008259
鵡川,5,42.8564305,142.265665
沙流,5,35.29225065,111.196400149532
両毛,5,24.4128498,109.1943921
弥陀ヶ原,5,36.567489,137.5573721
安田,5,37.341467,138.611727
コンポステラ,5,34.4564515,135.4593713
プラ,5,44.8702281,13.8455311
鬼丸,5,22.1654042,113.8023153
耶麻,5,15.5986243,45.2598934
美保,5,34.2522046,131.820025
ロフ,5,49.2479578,6.978865
金海,5,27.285365,99.4498037
怡土,5,25.0386951,121.4314938
葦北,5,24.6073,108.986
宮浦,5,33.6466767,130.2285863
八女,5,-21.1977046,165.5556847
三潴,5,33.2562161,130.4695223
大御神,5,35.375616,138.900373
浦塩斯徳,5,43.1093741,131.9399691
ウラル,5,54.394493,56.240589
山田,5,34.803858,135.5156044
清新,5,23.8887571,112.8486756
袙,5,40.9699889,-77.7278831
廬山,5,-62.2385329,-58.9804526
袋町,5,40.6104878,140.459619580449
今金,5,42.4268932,140.0158403
七尾,5,37.0419859,136.9639832
城崎,5,35.6284945,134.8108902
躑躅ヶ崎,5,33.666088,130.44036
霊鷲,5,31.0399918,106.7835903
伴,5,38.65662195,42.8071503586845
本栖,5,35.4632566,138.6051678
雲峰,5,23.3537487,120.9757537
舟岡,5,31.7988546,118.9432496
袋井,5,34.741337,137.9257682
韮崎,5,35.7104219,138.4508872
須走,5,38.782376,139.920372
東成,5,22.8346031,121.0826002
生麦,5,35.4952868,139.6669214
御許,5,30.2048669,95.386473
保土ヶ谷,5,35.4466889,139.5997021
稲佐,5,22.2756395,110.8246171
烏川,5,36.2709502,139.1741378
レバノン,5,33.8750629,35.843409
家山,5,30.832352,120.921868
アンデス,5,35.5390238,139.6789609
リバプール,5,35.1328003,136.8884536
ブラッセル,5,50.81595045,4.40977110402827
ルーマニア,5,45.9852129,24.6859225
横堀,5,39.0647246,140.4514627
玄界,5,22.8759536,106.8896393
タイン,5,45.0712839,4.8370726
北の山,5,34.2857436,135.4535933
山添,5,37.563211,140.4136675
影森,5,35.9721258,139.0683811
野上,5,36.111646,139.1107334
カラフト,5,50.15947595,143.026441186009
長坂,5,35.8275272,138.3667944
小松川,5,31.9203641,131.4099846
追分,5,24.1202267,120.5701241
大窪,5,40.90307155,122.065631905389
朝妻,5,34.4158848,135.7104983
勢田,5,35.5494051,137.8865571
今津,5,33.5719398,131.2671258
呼坂,5,34.4381672,132.4912722
長府,5,34.0196968,130.9997459
慶山,5,40.6424752,109.8959597
郢,5,39.5570557,113.1808215
大猪,5,30.7392034,107.2011353
佐屋,5,35.1472944,136.7164475
南薫,5,37.24619445,111.779534952961
玄琢,5,35.0527869,135.736731
雨降,5,28.2021776,116.8498058
天明,5,35.5496019,139.3390342
山南,5,29.2390869,91.7705692
南総,5,36.1247604,101.7511627
野津,5,32.570132,130.682088
八島,5,33.7384525,132.145663521113
有間,5,34.6917838,132.5100976
椿町,5,35.1690566,136.8801894
伯州,5,44.9039881,82.0630389
海津,5,36.825573,136.964336
丸太町,5,35.0162879,135.7595533
吉永,5,34.8122398,134.2045527
久須,5,21.7375709,112.360956261437
津川,5,31.5365939,101.8098326
前原,5,35.7009518,140.027839
福渡,5,34.8705436,133.9038825
長町,5,38.2285294,140.8848863
汨羅,5,28.8101339,113.0613336
クルック,5,9.9133978,78.1240414
比地,5,26.7268588,128.1779086
笠山,5,41.1452706,123.0206182
野田,5,40.1103223,141.8177344
里昂,5,45.7578137,4.8320114
建部,5,34.842273,133.899179
清住町,5,35.113633,138.907109
ハワイ,5,19.5938015,-155.428370097169
アリゾナ,5,34.395342,-111.763275
イリ,5,38.5049169,46.1931357
かも,5,37.6661851,139.04018
茗荷谷,5,35.7171896,139.7369396
コンゴー,5,-2.9814344,23.8222636
シア,5,6.7951878,10.8544267
カンボジア,5,12.5433216,104.8144914
平泉,5,41.0058155,118.6892901
剣山,5,33.8535794,134.0942858
ホーン,5,49.21141,22.30474
吉林,5,42.9995032,125.9816054
中町,5,31.5926033,130.5560328
ならし,5,34.6845445,135.8048359
北魚沼,5,35.955985,139.8199296
シンプロン,5,35.0613408,134.0007873
リヴィエラ,5,34.0628375,133.633868753956
ツーク,5,47.12235705,8.47984326376778
ガルダ,5,26.94965225,85.3108169015003
グラスゴー,5,55.8606182,-4.2497933
杜陵,5,22.823742,108.7466882
おきつ,5,35.052559,138.5219742
ネルソン,5,-41.2710849,173.2836756
京坂,5,35.1876271,133.9109551
八方,5,48.4124617,124.7796081
碓井,5,40.14840635,116.257557761462
ささや,5,12.393592,7.411773
板野,5,34.1420587,134.4657683
玉名,5,32.9260351,130.5493301
幡多,5,25.2753243,51.5359271
更級,5,35.6445936,139.7247374
栄町,5,35.8410441,140.2441238
明石町,5,35.667003,139.777695
荒町,5,38.2486854,140.884889
川原,5,38.7344127,140.9807192
今宿,5,33.5793544,130.2736272
宮田,5,35.7675805,137.9388746
南滿,5,35.0277929,135.751516
東岳,5,40.8369147,140.8916974
五智,5,35.0984028,113.4011621
八丁,5,34.249351,132.180829
西京,5,36.3076664,120.4632357
島の内,5,35.563934,135.86937
雨竜,5,26.8265328,100.2350414
戸田,5,35.8176989,139.6695966
河間,5,38.4425293,116.0901457
関山,5,36.9330324,138.2265894
百人町,5,35.179602,136.93315
ポカラ,5,28.209538,83.991402
由比,5,35.0976803,138.5532813
手繰,5,14.5498811,121.054298
しきしま,5,36.5379451,139.0338524
谷津,5,1.5574127,110.3439862
加美,5,34.6268037,135.5673576
栗栖,5,34.2387684,135.2237001
ソーホー,5,51.5140654,-0.1350494
シドニー,5,-33.8698439,151.2082848
山辺,5,35.0006567,135.3792485
飯豊,5,39.352831,141.090196
ニセコ,5,42.804684,140.6873034
石槌,5,37.2052214,140.3280154
東山道,5,35.49651565,139.756534166742
月ヶ瀬,5,34.7094668,136.0442318
居庸,5,36.0752195,139.1807917
済南,5,36.6507007,117.1140042
渋峠,5,36.66641,138.534458
須賀川,5,37.3004758,140.3719175
臨城,5,37.46584755,114.340445237031
蓮田,5,35.9813997,139.6530635
五木,5,35.970796,139.846066
リビングストン,5,35.4418463,136.79082207676
淀橋,5,31.0132088,117.3498217
気山,5,35.5845091,135.9095032
和気,5,34.7970952,134.1526231
愛甲,5,35.4208922,139.3503195
安倍,5,35.4437997,133.3049999
八束,5,35.282918,133.6878873
西臼杵,5,33.1186021,131.807899
野神,5,35.6351859,136.0559642
北都留,5,34.6439094,135.535235772462
田老,5,39.731517,141.964384
羽村,5,35.7582678,139.3160652
左沢,5,38.3820316,140.2080979
根尾,5,-30.55450705,151.903521845391
大飯,5,29.659944,114.6656986
西谷,5,36.1300028,103.5418853
山武,5,29.3185566,119.8814302
薩隅,5,27.3355665,105.7292928
任那,5,48.0224795,7.5835861
磯原,5,35.0945453,112.5810521
松代,5,37.1341514,138.6096665
浅香,5,34.585208,135.5023805
足寄,5,43.2450865,143.5467155
三陸,5,39.1174499,141.8099561
幽州,5,25.3583859,114.9138685
犬頭,5,34.519547,107.522278
烏帽子,5,40.3757866,141.0618326
東泉,5,34.545578,110.2410542
野幌,5,43.0923486,141.5296903
キト,5,-0.2201641,-78.5123274
小塚ッ原,5,35.9450172,139.441318065595
藤ヶ谷,5,34.2252773,131.9725773
白水,5,35.222222,109.517222
マウイ,5,20.8029568,-156.310683316022
小形,5,31.7829986,117.3632089
白帆,5,35.3807627,139.6464265
ブライトン,5,50.8214626,-0.1400561
ババリア,5,8.7337468,-75.849864
亀津,5,27.7219991,129.007709
神坂,5,35.4215546,134.18695
馬頭,5,31.9922904,116.6020663
マセドニア,5,41.6171214,21.7168387
ノルマンディ,5,49.0677708,0.3138532
大栗,5,25.6074778,100.2651597
妹背,5,43.331055,141.8620837
勝鬨,5,23.439417,116.0971137
池川,5,33.49553,130.20358
桂河,5,36.8121677,118.9125795
浦潮斯徳,5,31.4495518,104.6919589
松浦,5,33.3441797,129.7077067
下ル,5,29.4092426,89.4793654
川中島,5,36.6141007,138.1507012
幡磨,5,35.712758,140.27896
加悦,5,35.5022852,135.0897147
土手町,5,40.5993323,140.47482915357
芹川,5,35.25115,136.264515
湯谷,5,36.384353,136.933667
波崎,5,35.7529706,140.8201321
前沢,5,39.0484618,141.1263144
与謝野,4,35.5432967,135.1262846
上坐,4,31.5531561,118.125171
華頂,4,37.0076837,104.174607
鳴滝,4,35.0236048,135.7057886
高取,4,34.4751622,132.438136
与那原,4,26.2058317,127.7515769
あしや,4,34.7324313,135.3069326
亞剌比亞,4,14.887216,45.424355
万木,4,35.2953674,140.3275736
南嶽,4,27.2660465,112.7061618
窪町,4,40.5121627,141.4935415
八重洲,4,31.8689322,106.7416618
二戸,4,40.260138,141.286006
水海道,4,36.0180569,139.9916513
赤湯,4,38.0477732,140.1489173
守口,4,34.7384668,135.5643827
篠島,4,34.67623405,137.003849784448
ヅカ,4,33.8888084,136.100589
久遠,4,40.6092069,109.9615247
浦田,4,25.4557366,119.0029034
中原,4,34.0000001,113.9999999
平河町,4,35.6809686,139.74009694847
築上,4,25.219962,118.570589
大渡,4,24.1217,108.944
六合,4,34.8366128,138.2042561
乗越,4,21.176112,110.076228
桑崎,4,36.1738682,139.5223041
八ヶ嶽,4,35.9417261,138.3450705
和泉町,4,35.4172205,139.493149
閼伽井,4,35.7216055,139.7253612
にほん,4,36.5748441,139.2394179
天塩,4,25.6528526,106.85656698409
マドラス,4,35.3471795,136.916131053358
エルベ,4,35.553487,139.646014
馬路,4,35.128547,132.388134
南支,4,19.90955445,111.20019091541
潮州,4,23.6566146,116.6205482
北支,4,33.4911025,132.5373209
永明,4,25.2768684,111.3381346
嘉定,4,31.377756,121.2606119
河北,4,39.0000001,116
南満,4,35.0277929,135.751516
碁石,4,38.494121,139.517876
打出,4,34.731633,135.3155109
濱松,4,48.2131896,16.381222
刈田,4,34.6782129,131.8392373
因州,4,29.8155706,121.5452899
普魯士,4,24.9101384,104.4526784
久根,4,35.189296,138.926488
オルレアン,4,47.9027336,1.9086066
永良部,4,27.3842135,128.588156780556
中頭,4,33.987953,113.3490297
昇仙,4,38.1904931,116.1191021
東峰,4,46.8191128,130.455204
権田原,4,35.6771434,139.7209066
花町,4,35.2154458,106.5960843
石廊,4,2.1652852,102.5865074
戸山ヶ原,4,35.437002,136.7763516
信濃町,4,36.819182,138.182686
六本木,4,35.6624568,139.7334981
馬道,4,-18.9249604,46.4416422
桂林,4,25.238704,110.1750728
野辺地,4,40.8554611,141.1197284
岩見沢,4,43.2042889,141.7594738
神流,4,32.2214083,120.5774367
晋陽,4,37.870009,112.5452739
上新川,4,43.0803008,141.469992
中新川,4,33.875425,132.965997
いとか,4,-21.1383061,-175.189369011752
布佐,4,35.8490121,140.1331197
手賀,4,35.838552,140.075619
ペロポネソス,4,37.36332825,22.2395373439955
南千住,4,35.7323539,139.7988024
田中町,4,39.3124746,140.5659753
襟裳,4,24.7544307,107.6865892
世田ヶ谷,4,34.2824888,131.8507057
下り松,4,33.1200531,131.8160943
真玉,4,30.5400622,106.1704255
油壺,4,32.567032,116.226599
むつみ,4,33.742887,135.3805283
東村山,4,35.7604737,139.4659028
お玉ヶ池,4,35.20610565,139.041260843911
東俣,4,36.109086,138.130567
雪倉,4,29.8266112,91.4865895
西城,4,48.1698359,125.4805266
かしま,4,35.9661164,140.6450292
高縄,4,29.9907329,105.5376904
中米,4,36.8183198,119.483998
隴西,4,35.1044218,104.6258144
劉宋,4,23.2464,109.738
マレイ,4,42.9052238,-7.4225119
丹州,4,19.5173795,109.5697188
水無,4,36.707461,139.740595
値嘉,4,22.1994648,111.0285348
御井,4,33.3126699,130.5625963
丸都,4,40.3589184,116.753467034615
秋津,4,35.7785324,139.496609
日代,4,33.0660414,131.9183656
神集,4,45.1202572,141.1986333
伊蘇,4,35.561763,139.663954
行当,4,35.1043897,133.7748401
貞光,4,34.0394803,134.0589108
鈴木町,4,35.5354136,139.7206509
ベネズエラ,4,8.0018709,-66.1109318
鉾ヶ岳,4,34.2866132,129.2773482
今立,4,34.5280411,133.5359085
洞海,4,43.06005335,137.335301269924
巨摩,4,61.7589989,17.0983256
駿遠,4,31.5631778,130.5459865
長篠,4,34.9271227,137.5616223
小幡,4,35.2001171,136.9754154
輪島,4,34.1443764,129.286874784722
千畳,4,42.0944604,139.4291513
厦門,4,24.4801069,118.0853479
賤ヶ岳,4,35.5060988,136.1931002
長沼,4,35.6427981,139.3659307
姥子,4,35.2445548,139.0059482
疋田,4,35.599278,136.100276
八家,4,34.7840293,134.722518
湖北,4,31.15305035,112.880642262397
母島,4,26.66089385,142.156103487148
市俄古,4,34.367407,132.103473
カラカ,4,51.897077,-8.4654674
道玄坂,4,35.6594198,139.6991764
大朝,4,24.3451,109.041
出島,4,32.7433317,129.8728856
蓮台,4,33.584919,133.491943
クリミア,4,45.21061175,34.4177725951098
墺国,4,42.8649495,0.3618017
雄武,4,44.5817182,142.9586613
スラブ,4,43.07234275,141.344139993349
東欧,4,48.5949208,7.7718997
長白,4,41.5687467,127.8415521
つま,4,34.991907,134.989976
ウェリントン,4,-41.2887953,174.7772114
さくな,4,34.9678883,139.8880234
箕島,4,34.0860579,135.1249616
米代,4,37.4853316,139.9258087
戸神,4,35.788246,140.116351
八阪,4,35.620247,136.945466
熊野川,4,33.9986099,135.8076379
国島,4,34.3827739,133.823582700137
霊南,4,35.7201569,128.698920693184
宇津,4,36.8264529,137.4057296
下毛,4,28.74661,118.4234792
御調,4,35.6554392,139.5293165
市谷,4,26.9469844,112.5928527
青木,4,34.7170563,135.2806737
小園,4,35.452599,139.413411
蓮池,4,38.8595713,115.5146955
熱川,4,35.5431459,139.5131913
番場,4,31.103204,118.1939852
淀屋橋,4,34.6924906,135.5013746
七浦,4,38.3027927,140.3403945
高森,4,39.5804061,141.3855886
馬町,4,32.7523687,129.8824749
安佐,4,34.7224808,137.6979316
黄山,4,30.2841703,118.1299559
石部,4,35.0176482,136.052946
薩陀,4,10.0742756,-69.3337197
すみだ,4,35.7003789,139.8058673
景陽,4,32.5384616,107.8911325
棚倉,4,34.7742558,135.8160735
唐国,4,25.8359,101.732
広陵,4,39.7653513,114.1526007
海塩,4,37.0900361,100.8029023
さほ,4,6.772866,46.79689
度会,4,33.5801376,130.3979971
関宿,4,32.1065771,119.437309
六田,4,34.390023,135.822567
宮島,4,34.271448,132.308872180478
金木,4,34.273778,104.234199
吹田,4,34.7632328,135.5236725
南城,4,27.5722894,116.6330209
ただす,4,35.037025,135.772457548166
栗太,4,32.83216,116.140963
九鬼,4,34.0160785,136.2426381
肥州,4,11.5024338,17.7578122
連子,4,37.2901869,114.8543572
安八,4,28.6036,86.7332
大堰,4,27.4795,108.359
船町,4,34.7752077,137.3742695
原宿,4,35.6687049,139.7053357
亀田,4,37.87718,139.108242
熊石,4,31.38941,105.80566
小網町,4,34.393553,132.444903
黄海,4,36.0000002,123.9999998
青葉,4,42.6306223,141.5700958
武昌,4,30.5566998,114.3109847
渭水,4,23.0506077,113.3662482
黒田,4,35.3502699,136.7774409
トマン,4,44.3511111,19.3680556
鍛冶屋,4,34.4914713,133.2287915
大宛,4,22.4147003,114.379311133378
鴻の台,4,37.25151,140.460795
宇和,4,26.7953728,112.0852232
霧降,4,31.1415158,120.6406744
リスボン,4,38.7077507,-9.1365919
堀留,4,35.1615294,136.9108024
高畑,4,35.1390555,136.8534142
根堅,4,34.843416,137.791216
蜂屋,4,35.033107,135.996035
魚貫,4,36.0074524,139.6084237
船岡,4,38.0594138,140.7680113
ロア,4,49.4404591,1.0939658
猿島,4,37.1347287,136.9032753
グラナダ,4,37.1734995,-3.5995337
甲良,4,34.4240892,113.6971986
ドナウ,4,48.0340012,17.2208502
羅国,4,26.4016533,100.280769
西涼,4,40.790336,115.1029623
酒泉,4,39.7321262,98.4936839
女鬼,4,39.7430441,140.086035803494
幸町,4,34.239254,132.5614162
石岡,4,36.1910839,140.2800498
飛島,4,39.1950432,139.549767279589
タヒチ,4,-17.68734395,-149.445168114237
伊勢町,4,36.6584979,138.1892518
甲浦,4,33.5469012,134.2877985
ハルビン,4,35.69777,139.560446
石川島,4,36.3486648,140.4924399
中京,4,35.7150987,139.6863011
マイリンゲン,4,48.05238925,13.5709516108552
脇,4,35.5364796,135.2430902
アルピ,4,-0.7139667,-47.78568
板屋,4,25.4064315,110.1330931
酒々井,4,35.7367994,140.2700492
南昌,4,28.687547,115.8540042
赤川,4,38.4195837,139.8143874
真正,4,34.4460783,132.7992887
大月,4,35.613318,138.9424992
雉子町,4,34.995002,135.75709
珠洲,4,33.9973117,130.37035886801
能義,4,35.3924964,133.2272238
東磐井,4,32.201911,119.1150541
津名,4,34.830703,114.267336
吉備津,4,34.6737418,133.8456574
井原,4,36.498934,104.696337
泉南,4,34.8159,126.4629
ダーラム,4,54.666667,-1.75
油堀,4,31.28768945,121.568989702003
曾根崎,4,33.0584977,129.0760356
うなひ,4,-35.0061627,173.2515019
代田,4,35.6559645,139.6608411
上月,4,34.9835316,134.322507
長楽,4,25.8993802,119.5408624
八甲田,4,40.8227455,140.7356776
毛馬内,4,31.8261531,130.2995988
能美,4,36.573295,136.796739
大牟田,4,33.0297805,130.4432796
天保,4,31.9552445,118.672229
香取,4,35.8979896,140.5320045
ペラ,4,-6.8699697,-75.0458515
貴州,4,27,107
マンリー,4,-36.631254,174.7558913
アムド,4,32.2676152,91.6810713
